place_id,place_names,latitude,longitude,address,city,city_CN,redirection_url,navigation_url
ChIJC8EevbSrQjQRuXBROTgppw8,COMEBUY(台北北醫店),25.0266,121.564,台北市信義區吳興街277號,Taipei City,台北市,https://foodpanda.com.tw/restaurant/a2wv/comebuy-tai-bei-bei-yi-dian,https://www.google.com/maps/dir/?api=1&origin=%E6%9D%B1%E5%90%B3%E5%A4%A7%E5%AD%B8%E5%9F%8E%E4%B8%AD%E6%A0%A1%E5%8D%80&destination=COMEBUY%28%E5%8F%B0%E5%8C%97%E5%8C%97%E9%86%AB%E5%BA%97%29&travelmode=driving
ChIJwZNRZKarQjQRjsWDDkvjf68,85度C(台北莊敬店),25.0272,121.566,台北市信義區莊敬路416號,Taipei City,台北市,https://foodpanda.com.tw/restaurant/y9kc/85du-c-tai-bei-zhuang-jing-dian,https://www.google.com/maps/dir/?api=1&origin=%E6%9D%B1%E5%90%B3%E5%A4%A7%E5%AD%B8%E5%9F%8E%E4%B8%AD%E6%A0%A1%E5%8D%80&destination=85%E5%BA%A6C%28%E5%8F%B0%E5%8C%97%E8%8E%8A%E6%95%AC%E5%BA%97%29&travelmode=driving
ChIJb7PV-vOrQjQRVo3fSFdwhAs,烏弄(信義吳興店),25.0313,121.56,台北市信義區吳興街35號,Taipei City,台北市,https://foodpanda.com.tw/restaurant/chx1/wu-nong-xin-yi-wu-xing-dian,https://www.google.com/maps/dir/?api=1&origin=%E6%9D%B1%E5%90%B3%E5%A4%A7%E5%AD%B8%E5%9F%8E%E4%B8%AD%E6%A0%A1%E5%8D%80&destination=%E7%83%8F%E5%BC%84%28%E4%BF%A1%E7%BE%A9%E5%90%B3%E8%88%88%E5%BA%97%29&travelmode=driving
ChIJHVhc8AmrQjQRF5kjfCQTvqs,先喝道(台北101店),25.034,121.565,台北市信義區市府路45號B1,Taipei City,台北市,https://foodpanda.com.tw/restaurant/oniy/xian-he-dao-tai-bei-101dian,https://www.google.com/maps/dir/?api=1&origin=%E6%9D%B1%E5%90%B3%E5%A4%A7%E5%AD%B8%E5%9F%8E%E4%B8%AD%E6%A0%A1%E5%8D%80&destination=%E5%85%88%E5%96%9D%E9%81%93%28%E5%8F%B0%E5%8C%97101%E5%BA%97%29&travelmode=driving
ChIJ56sYHtGrQjQR72D7Ffig0Io,因果茶(微風南山店),25.0345,121.566,台北市信義區松智路17號B2,Taipei City,台北市,https://foodpanda.com.tw/restaurant/cl14/yin-guo-cha-wei-feng-nan-shan-dian,https://www.google.com/maps/dir/?api=1&origin=%E6%9D%B1%E5%90%B3%E5%A4%A7%E5%AD%B8%E5%9F%8E%E4%B8%AD%E6%A0%A1%E5%8D%80&destination=%E5%9B%A0%E6%9E%9C%E8%8C%B6%28%E5%BE%AE%E9%A2%A8%E5%8D%97%E5%B1%B1%E5%BA%97%29&travelmode=driving
ChIJs1YCq_CrQjQR3xt2-Wj92Gk,天仁CHAFFEE(微風南山Ⓟ),25.0344,121.567,台北市信義區松智路17號B2F,Taipei City,台北市,https://foodpanda.com.tw/restaurant/c9xl/tian-ren-chaffee-wei-feng-nan-shan,https://www.google.com/maps/dir/?api=1&origin=%E6%9D%B1%E5%90%B3%E5%A4%A7%E5%AD%B8%E5%9F%8E%E4%B8%AD%E6%A0%A1%E5%8D%80&destination=%E5%A4%A9%E4%BB%81CHAFFEE%28%E5%BE%AE%E9%A2%A8%E5%8D%97%E5%B1%B1%E2%93%85%29&travelmode=driving
ChIJma6XJ2OrQjQRvuT2hJCv4FU,Chatime(信義威秀店),25.0354,121.567,台北市信義區松壽路20號2F,Taipei City,台北市,https://foodpanda.com.tw/restaurant/f8qd/chatime-xin-yi-wei-xiu-dian,https://www.google.com/maps/dir/?api=1&origin=%E6%9D%B1%E5%90%B3%E5%A4%A7%E5%AD%B8%E5%9F%8E%E4%B8%AD%E6%A0%A1%E5%8D%80&destination=Chatime%28%E4%BF%A1%E7%BE%A9%E5%A8%81%E7%A7%80%E5%BA%97%29&travelmode=driving
ChIJyf-DD8WpQjQR82pzoLn3VRQ,迷客夏 Milksha(台北北醫店),25.0292,121.563,台北市信義區莊敬路260號,Taipei City,台北市,https://foodpanda.com.tw/restaurant/ue2y/mi-ke-xia-milksha-tai-bei-bei-yi-dian,https://www.google.com/maps/dir/?api=1&origin=%E6%9D%B1%E5%90%B3%E5%A4%A7%E5%AD%B8%E5%9F%8E%E4%B8%AD%E6%A0%A1%E5%8D%80&destination=%E8%BF%B7%E5%AE%A2%E5%A4%8F+Milksha%28%E5%8F%B0%E5%8C%97%E5%8C%97%E9%86%AB%E5%BA%97%29&travelmode=driving
ChIJO4L0ns6rQjQRbuOnK4dvVcE,發發 莊敬牧場,25.0285,121.563,台北市信義區莊敬路306號,Taipei City,台北市,https://foodpanda.com.tw/restaurant/snls/fa-fa-zhuang-jing-mu-chang,https://www.google.com/maps/dir/?api=1&origin=%E6%9D%B1%E5%90%B3%E5%A4%A7%E5%AD%B8%E5%9F%8E%E4%B8%AD%E6%A0%A1%E5%8D%80&destination=%E7%99%BC%E7%99%BC+%E8%8E%8A%E6%95%AC%E7%89%A7%E5%A0%B4&travelmode=driving
ChIJtbCFYFGrQjQRAAGubuykFNI,再睡5分鐘(台北吳興店),25.0311,121.56,台北市信義區吳興街53號,Taipei City,台北市,https://foodpanda.com.tw/restaurant/iucx/zai-shui-5fen-zhong-tai-bei-wu-xing-dian,https://www.google.com/maps/dir/?api=1&origin=%E6%9D%B1%E5%90%B3%E5%A4%A7%E5%AD%B8%E5%9F%8E%E4%B8%AD%E6%A0%A1%E5%8D%80&destination=%E5%86%8D%E7%9D%A15%E5%88%86%E9%90%98%28%E5%8F%B0%E5%8C%97%E5%90%B3%E8%88%88%E5%BA%97%29&travelmode=driving
ChIJMZDc5UWrQjQRI_5Gd6QjiFc,珍煮丹(台北北醫店),25.0282,121.563,台北市信義區莊敬路318號,Taipei City,台北市,https://foodpanda.com.tw/restaurant/m4r3/zhen-zhu-dan-tai-bei-bei-yi-dian,https://www.google.com/maps/dir/?api=1&origin=%E6%9D%B1%E5%90%B3%E5%A4%A7%E5%AD%B8%E5%9F%8E%E4%B8%AD%E6%A0%A1%E5%8D%80&destination=%E7%8F%8D%E7%85%AE%E4%B8%B9%28%E5%8F%B0%E5%8C%97%E5%8C%97%E9%86%AB%E5%BA%97%29&travelmode=driving
ChIJ5c3ZwRCrQjQRnsjDHGUF_bw,得正 OOLONG TEA PROJECT(台北世貿計劃),25.0316,121.56,台北市信義區吳興街19號一樓,Taipei City,台北市,https://foodpanda.com.tw/restaurant/k56z/de-zheng-oolong-tea-project-tai-bei-shi-mao-ji-hua,https://www.google.com/maps/dir/?api=1&origin=%E6%9D%B1%E5%90%B3%E5%A4%A7%E5%AD%B8%E5%9F%8E%E4%B8%AD%E6%A0%A1%E5%8D%80&destination=%E5%BE%97%E6%AD%A3+OOLONG+TEA+PROJECT%28%E5%8F%B0%E5%8C%97%E4%B8%96%E8%B2%BF%E8%A8%88%E5%8A%83%29&travelmode=driving
ChIJ4xVcdcqrQjQRmswvQdvKdS4,蟬吃茶(台北吳興店),25.0314,121.56,台北市信義區吳興街30號,Taipei City,台北市,https://foodpanda.com.tw/restaurant/sdja/chan-chi-cha-tai-bei-wu-xing-dian,https://www.google.com/maps/dir/?api=1&origin=%E6%9D%B1%E5%90%B3%E5%A4%A7%E5%AD%B8%E5%9F%8E%E4%B8%AD%E6%A0%A1%E5%8D%80&destination=%E8%9F%AC%E5%90%83%E8%8C%B6%28%E5%8F%B0%E5%8C%97%E5%90%B3%E8%88%88%E5%BA%97%29&travelmode=driving
ChIJOyMqgKKrQjQRUqiR4iF7hqI,50嵐(世貿店),25.0317,121.56,台北市信義區吳興街15號,Taipei City,台北市,https://foodpanda.com.tw/restaurant/e1jx/50lan-shi-mao-dian,https://www.google.com/maps/dir/?api=1&origin=%E6%9D%B1%E5%90%B3%E5%A4%A7%E5%AD%B8%E5%9F%8E%E4%B8%AD%E6%A0%A1%E5%8D%80&destination=50%E5%B5%90%28%E4%B8%96%E8%B2%BF%E5%BA%97%29&travelmode=driving
ChIJS0jJ3LSrQjQRlKWNAlVqW7A,CoCo都可(台北吳興店),25.0276,121.563,台北市信義區吳興街229號,Taipei City,台北市,https://foodpanda.com.tw/restaurant/h4x6/cocodu-ke-tai-bei-wu-xing-dian,https://www.google.com/maps/dir/?api=1&origin=%E6%9D%B1%E5%90%B3%E5%A4%A7%E5%AD%B8%E5%9F%8E%E4%B8%AD%E6%A0%A1%E5%8D%80&destination=CoCo%E9%83%BD%E5%8F%AF%28%E5%8F%B0%E5%8C%97%E5%90%B3%E8%88%88%E5%BA%97%29&travelmode=driving
ChIJHZG4UXerQjQRR-CEpntfkaE,五桐號 WooTEA(台北吳興店),25.0275,121.563,台北市信義區吳興街233號1樓,Taipei City,台北市,https://foodpanda.com.tw/restaurant/nksb/wu-tong-hao-wootea-tai-bei-wu-xing-dian,https://www.google.com/maps/dir/?api=1&origin=%E6%9D%B1%E5%90%B3%E5%A4%A7%E5%AD%B8%E5%9F%8E%E4%B8%AD%E6%A0%A1%E5%8D%80&destination=%E4%BA%94%E6%A1%90%E8%99%9F+WooTEA%28%E5%8F%B0%E5%8C%97%E5%90%B3%E8%88%88%E5%BA%97%29&travelmode=driving
ChIJ-ZQIJK-rQjQRYiLYdtjoFd4,春陽茶事(台北北醫店),25.0275,121.563,台北市信義區吳興街220巷7號,Taipei City,台北市,https://foodpanda.com.tw/restaurant/e6ni/chun-yang-cha-shi-tai-bei-bei-yi-dian,https://www.google.com/maps/dir/?api=1&origin=%E6%9D%B1%E5%90%B3%E5%A4%A7%E5%AD%B8%E5%9F%8E%E4%B8%AD%E6%A0%A1%E5%8D%80&destination=%E6%98%A5%E9%99%BD%E8%8C%B6%E4%BA%8B%28%E5%8F%B0%E5%8C%97%E5%8C%97%E9%86%AB%E5%BA%97%29&travelmode=driving
ChIJS-6hsCurQjQRPBY0wx4Kucc,Mr.Wish 鮮果茶玩家(台北北醫店),25.0268,121.568,台北市信義區莊敬路474號,Taipei City,台北市,https://foodpanda.com.tw/restaurant/jfdk/mr-wish-xian-guo-cha-wan-jia-tai-bei-bei-yi-dian,https://www.google.com/maps/dir/?api=1&origin=%E6%9D%B1%E5%90%B3%E5%A4%A7%E5%AD%B8%E5%9F%8E%E4%B8%AD%E6%A0%A1%E5%8D%80&destination=Mr.Wish+%E9%AE%AE%E6%9E%9C%E8%8C%B6%E7%8E%A9%E5%AE%B6%28%E5%8F%B0%E5%8C%97%E5%8C%97%E9%86%AB%E5%BA%97%29&travelmode=driving
ChIJg6VhLT6rQjQRMvlGH7f7qqs,秀茶邸家(信義永吉店),25.0415,121.569,台北市信義區永吉路30巷178弄2號,Taipei City,台北市,https://foodpanda.com.tw/restaurant/owe0/xiu-cha-di-jia-xin-yi-yong-ji-dian,https://www.google.com/maps/dir/?api=1&origin=%E6%9D%B1%E5%90%B3%E5%A4%A7%E5%AD%B8%E5%9F%8E%E4%B8%AD%E6%A0%A1%E5%8D%80&destination=%E7%A7%80%E8%8C%B6%E9%82%B8%E5%AE%B6%28%E4%BF%A1%E7%BE%A9%E6%B0%B8%E5%90%89%E5%BA%97%29&travelmode=driving
ChIJLx9W2jaqQjQRayKIFRJMseY,茶湯會(台北安居店),25.0211,121.555,台北市大安區安居街10號1樓,Taipei City,台北市,https://foodpanda.com.tw/restaurant/pnj6/cha-tang-hui-tai-bei-an-ju-dian,https://www.google.com/maps/dir/?api=1&origin=%E6%9D%B1%E5%90%B3%E5%A4%A7%E5%AD%B8%E5%9F%8E%E4%B8%AD%E6%A0%A1%E5%8D%80&destination=%E8%8C%B6%E6%B9%AF%E6%9C%83%28%E5%8F%B0%E5%8C%97%E5%AE%89%E5%B1%85%E5%BA%97%29&travelmode=driving
ChIJU7X-cF2pQjQRDUugg9OaCog,台灣草藤茶飲(原好了啦超大杯),25.0392,121.586,台北市信義區福德街268巷3號,Taipei City,台北市,https://foodpanda.com.tw/restaurant/iytc/tai-wan-cao-teng-cha-yin-yuan-hao-liao-la-chao-da-bei,https://www.google.com/maps/dir/?api=1&origin=%E6%9D%B1%E5%90%B3%E5%A4%A7%E5%AD%B8%E5%9F%8E%E4%B8%AD%E6%A0%A1%E5%8D%80&destination=%E5%8F%B0%E7%81%A3%E8%8D%89%E8%97%A4%E8%8C%B6%E9%A3%B2%28%E5%8E%9F%E5%A5%BD%E4%BA%86%E5%95%A6%E8%B6%85%E5%A4%A7%E6%9D%AF%29&travelmode=driving
ChIJQW8yO-qrQjQRk7hhF1CBWdM,嘉義紅茶(台北饒河店),25.0505,121.575,台北市松山區饒河街138號,Taipei City,台北市,https://foodpanda.com.tw/restaurant/wwra/jia-yi-hong-cha-tai-bei-rao-he-dian,https://www.google.com/maps/dir/?api=1&origin=%E6%9D%B1%E5%90%B3%E5%A4%A7%E5%AD%B8%E5%9F%8E%E4%B8%AD%E6%A0%A1%E5%8D%80&destination=%E5%98%89%E7%BE%A9%E7%B4%85%E8%8C%B6%28%E5%8F%B0%E5%8C%97%E9%A5%92%E6%B2%B3%E5%BA%97%29&travelmode=driving
ChIJjR0GP42rQjQRTnoICvnVed4,泰愛了手工泰式奶茶(松山饒河店),25.0507,121.576,台北市松山區饒河街160號,Taipei City,台北市,https://foodpanda.com.tw/restaurant/pljk/tai-ai-liao-shou-gong-tai-shi-nai-cha-song-shan-rao-he-dian,https://www.google.com/maps/dir/?api=1&origin=%E6%9D%B1%E5%90%B3%E5%A4%A7%E5%AD%B8%E5%9F%8E%E4%B8%AD%E6%A0%A1%E5%8D%80&destination=%E6%B3%B0%E6%84%9B%E4%BA%86%E6%89%8B%E5%B7%A5%E6%B3%B0%E5%BC%8F%E5%A5%B6%E8%8C%B6%28%E6%9D%BE%E5%B1%B1%E9%A5%92%E6%B2%B3%E5%BA%97%29&travelmode=driving
ChIJQazyoSirQjQRZMdYYKJUigA,STARBUCKS 星巴克(信義經貿門市),25.0327,121.567,台北市信義區信義路五段106號,Taipei City,台北市,https://foodpanda.com.tw/restaurant/d7uq/starbucks-xing-ba-ke-xin-yi-jing-mao-men-shi,https://www.google.com/maps/dir/?api=1&origin=%E6%9D%B1%E5%90%B3%E5%A4%A7%E5%AD%B8%E5%9F%8E%E4%B8%AD%E6%A0%A1%E5%8D%80&destination=STARBUCKS+%E6%98%9F%E5%B7%B4%E5%85%8B%28%E4%BF%A1%E7%BE%A9%E7%B6%93%E8%B2%BF%E9%96%80%E5%B8%82%29&travelmode=driving
ChIJKwTDoSarQjQRRXlL8-9QG8g,鬍子茶 Who's tea(ATT 4 FUN),25.0348,121.566,台北市信義區松壽路12號1F,Taipei City,台北市,https://foodpanda.com.tw/restaurant/g5kv/hu-zi-cha-whos-tea-att-4-fun,https://www.google.com/maps/dir/?api=1&origin=%E6%9D%B1%E5%90%B3%E5%A4%A7%E5%AD%B8%E5%9F%8E%E4%B8%AD%E6%A0%A1%E5%8D%80&destination=%E9%AC%8D%E5%AD%90%E8%8C%B6+Who%27s+tea%28ATT+4+FUN%29&travelmode=driving
ChIJuVTKGvarQjQRFLIbKD21BQM,春芳號(ATT 4 FUN),25.0349,121.566,台北市信義區松壽路12號1F,Taipei City,台北市,https://foodpanda.com.tw/restaurant/f5gc/chun-fang-hao-att-4-fun,https://www.google.com/maps/dir/?api=1&origin=%E6%9D%B1%E5%90%B3%E5%A4%A7%E5%AD%B8%E5%9F%8E%E4%B8%AD%E6%A0%A1%E5%8D%80&destination=%E6%98%A5%E8%8A%B3%E8%99%9F%28ATT+4+FUN%29&travelmode=driving
ChIJ4dm6CbWrQjQRpEIHajkeC2k,水巷茶弄(台北吳興店),25.0299,121.561,台北市信義區吳興街128號,Taipei City,台北市,https://foodpanda.com.tw/restaurant/d9tt/shui-xiang-cha-nong-tai-bei-wu-xing-dian,https://www.google.com/maps/dir/?api=1&origin=%E6%9D%B1%E5%90%B3%E5%A4%A7%E5%AD%B8%E5%9F%8E%E4%B8%AD%E6%A0%A1%E5%8D%80&destination=%E6%B0%B4%E5%B7%B7%E8%8C%B6%E5%BC%84%28%E5%8F%B0%E5%8C%97%E5%90%B3%E8%88%88%E5%BA%97%29&travelmode=driving
ChIJe6KyDrWrQjQRSKbjdFJnjBM,清心福全(信義世貿店),25.0295,121.562,臺北市信義區吳興街144號,Taipei City,台北市,https://foodpanda.com.tw/restaurant/y7tn/qing-xin-fu-quan-xin-yi-shi-mao-dian,https://www.google.com/maps/dir/?api=1&origin=%E6%9D%B1%E5%90%B3%E5%A4%A7%E5%AD%B8%E5%9F%8E%E4%B8%AD%E6%A0%A1%E5%8D%80&destination=%E6%B8%85%E5%BF%83%E7%A6%8F%E5%85%A8%28%E4%BF%A1%E7%BE%A9%E4%B8%96%E8%B2%BF%E5%BA%97%29&travelmode=driving
ChIJmc1RU8CrQjQRTF9GC3zxYg4,上宇林頂級茶飲(信義莊敬店),25.0283,121.563,台北市信義區莊敬路320號,Taipei City,台北市,https://foodpanda.com.tw/restaurant/h1x5/shang-yu-lin-ding-ji-cha-yin-xin-yi-zhuang-jing-dian,https://www.google.com/maps/dir/?api=1&origin=%E6%9D%B1%E5%90%B3%E5%A4%A7%E5%AD%B8%E5%9F%8E%E4%B8%AD%E6%A0%A1%E5%8D%80&destination=%E4%B8%8A%E5%AE%87%E6%9E%97%E9%A0%82%E7%B4%9A%E8%8C%B6%E9%A3%B2%28%E4%BF%A1%E7%BE%A9%E8%8E%8A%E6%95%AC%E5%BA%97%29&travelmode=driving
ChIJO2Gxu6CrQjQRuNHWyucCRwc,七盞茶(信義莊敬店),25.0272,121.566,台北市信義區莊敬路415號1樓,Taipei City,台北市,https://foodpanda.com.tw/restaurant/g42y/qi-zhan-cha-xin-yi-zhuang-jing-dian,https://www.google.com/maps/dir/?api=1&origin=%E6%9D%B1%E5%90%B3%E5%A4%A7%E5%AD%B8%E5%9F%8E%E4%B8%AD%E6%A0%A1%E5%8D%80&destination=%E4%B8%83%E7%9B%9E%E8%8C%B6%28%E4%BF%A1%E7%BE%A9%E8%8E%8A%E6%95%AC%E5%BA%97%29&travelmode=driving
ChIJe_lHRMCrQjQR3SgHiBIy-H8,Sep(台北信義店),25.0323,121.559,台北市信義區信義路四段450巷3號,Taipei City,台北市,https://foodpanda.com.tw/restaurant/vqy7/sep-tai-bei-xin-yi-dian,https://www.google.com/maps/dir/?api=1&origin=%E6%9D%B1%E5%90%B3%E5%A4%A7%E5%AD%B8%E5%9F%8E%E4%B8%AD%E6%A0%A1%E5%8D%80&destination=Sep%28%E5%8F%B0%E5%8C%97%E4%BF%A1%E7%BE%A9%E5%BA%97%29&travelmode=driving
ChIJFQBAdXKpQjQRRTZuH_kG8MI,樂法(台北市府店),25.0403,121.565,台北市信義區忠孝東路五段6號1樓,Taipei City,台北市,https://foodpanda.com.tw/restaurant/p4cc/le-fa-tai-bei-shi-fu-dian,https://www.google.com/maps/dir/?api=1&origin=%E6%9D%B1%E5%90%B3%E5%A4%A7%E5%AD%B8%E5%9F%8E%E4%B8%AD%E6%A0%A1%E5%8D%80&destination=%E6%A8%82%E6%B3%95%28%E5%8F%B0%E5%8C%97%E5%B8%82%E5%BA%9C%E5%BA%97%29&travelmode=driving
ChIJDYZydQCrQjQRBT4xE7vOWuI,喝果汁(市府店),25.0406,121.567,台北市信義區忠孝東路五段一之5號1樓,Taipei City,台北市,https://foodpanda.com.tw/restaurant/jjwu/he-guo-zhi-shi-fu-dian,https://www.google.com/maps/dir/?api=1&origin=%E6%9D%B1%E5%90%B3%E5%A4%A7%E5%AD%B8%E5%9F%8E%E4%B8%AD%E6%A0%A1%E5%8D%80&destination=%E5%96%9D%E6%9E%9C%E6%B1%81%28%E5%B8%82%E5%BA%9C%E5%BA%97%29&travelmode=driving
ChIJU-yUEO2rQjQRzmXmH8VNPYg,大苑子(市府夢想店),25.0411,121.568,台北市信義區忠孝東路五段139號,Taipei City,台北市,https://foodpanda.com.tw/restaurant/h0xe/da-yuan-zi-shi-fu-meng-xiang-dian,https://www.google.com/maps/dir/?api=1&origin=%E6%9D%B1%E5%90%B3%E5%A4%A7%E5%AD%B8%E5%9F%8E%E4%B8%AD%E6%A0%A1%E5%8D%80&destination=%E5%A4%A7%E8%8B%91%E5%AD%90%28%E5%B8%82%E5%BA%9C%E5%A4%A2%E6%83%B3%E5%BA%97%29&travelmode=driving
ChIJudigC5CrQjQRN6Vv2R_d7Tw,可不可熟成紅茶(台北市政店),25.0415,121.565,台北市信義區忠孝東路五段17之2號,Taipei City,台北市,https://foodpanda.com.tw/restaurant/ro7z/ke-bu-ke-shou-cheng-hong-cha-tai-bei-shi-zheng-dian,https://www.google.com/maps/dir/?api=1&origin=%E6%9D%B1%E5%90%B3%E5%A4%A7%E5%AD%B8%E5%9F%8E%E4%B8%AD%E6%A0%A1%E5%8D%80&destination=%E5%8F%AF%E4%B8%8D%E5%8F%AF%E7%86%9F%E6%88%90%E7%B4%85%E8%8C%B6%28%E5%8F%B0%E5%8C%97%E5%B8%82%E6%94%BF%E5%BA%97%29&travelmode=driving
ChIJz9nt_zqrQjQRIAD4_VBOOgQ,OOXX(信義市府店),25.0418,121.565,台北市信義區忠孝東路五段15巷10號1樓,Taipei City,台北市,https://foodpanda.com.tw/restaurant/m7ty/ooxx-xin-yi-shi-fu-dian,https://www.google.com/maps/dir/?api=1&origin=%E6%9D%B1%E5%90%B3%E5%A4%A7%E5%AD%B8%E5%9F%8E%E4%B8%AD%E6%A0%A1%E5%8D%80&destination=OOXX%28%E4%BF%A1%E7%BE%A9%E5%B8%82%E5%BA%9C%E5%BA%97%29&travelmode=driving
ChIJD4kqbWOrQjQRcx9x0_Z68eM,冰豆綠豆沙(通化夜市店),25.0298,121.556,台北市大安區臨江街38號,Taipei City,台北市,https://foodpanda.com.tw/restaurant/wbho/bing-dou-lu-dou-sha-tong-hua-ye-shi-dian,https://www.google.com/maps/dir/?api=1&origin=%E6%9D%B1%E5%90%B3%E5%A4%A7%E5%AD%B8%E5%9F%8E%E4%B8%AD%E6%A0%A1%E5%8D%80&destination=%E5%86%B0%E8%B1%86%E7%B6%A0%E8%B1%86%E6%B2%99%28%E9%80%9A%E5%8C%96%E5%A4%9C%E5%B8%82%E5%BA%97%29&travelmode=driving
ChIJb1NSMbmrQjQRJXb-dj8EVRs,瓷禧茶坊(台北松菸店),25.042,121.564,台北市信義區忠孝東路四段559巷12號,Taipei City,台北市,https://foodpanda.com.tw/restaurant/a6ls/ci-xi-cha-fang-tai-bei-song-yan-dian,https://www.google.com/maps/dir/?api=1&origin=%E6%9D%B1%E5%90%B3%E5%A4%A7%E5%AD%B8%E5%9F%8E%E4%B8%AD%E6%A0%A1%E5%8D%80&destination=%E7%93%B7%E7%A6%A7%E8%8C%B6%E5%9D%8A%28%E5%8F%B0%E5%8C%97%E6%9D%BE%E8%8F%B8%E5%BA%97%29&travelmode=driving
ChIJd_R5PwCrQjQRfDMbQXjoUzk,WTF tea express(永吉市府店),25.0416,121.569,臺北市信義區永吉路30巷178弄1號1樓,Taipei City,台北市,https://foodpanda.com.tw/restaurant/lbnt/wtf-tea-express-yong-ji-shi-fu-dian,https://www.google.com/maps/dir/?api=1&origin=%E6%9D%B1%E5%90%B3%E5%A4%A7%E5%AD%B8%E5%9F%8E%E4%B8%AD%E6%A0%A1%E5%8D%80&destination=WTF+tea+express%28%E6%B0%B8%E5%90%89%E5%B8%82%E5%BA%9C%E5%BA%97%29&travelmode=driving
ChIJpekYtjarQjQRXY8nxGgDA54,龍角 Dragon Horn(信義松菸店),25.0421,121.564,台北市信義區忠孝東路四段559巷14號,Taipei City,台北市,https://foodpanda.com.tw/restaurant/fsy1/long-jiao-dragon-horn-xin-yi-song-yan-dian,https://www.google.com/maps/dir/?api=1&origin=%E6%9D%B1%E5%90%B3%E5%A4%A7%E5%AD%B8%E5%9F%8E%E4%B8%AD%E6%A0%A1%E5%8D%80&destination=%E9%BE%8D%E8%A7%92+Dragon+Horn%28%E4%BF%A1%E7%BE%A9%E6%9D%BE%E8%8F%B8%E5%BA%97%29&travelmode=driving
ChIJpxRZ4nCrQjQRQjFtyNW98QY,武林茶(台北永吉店),25.0418,121.569,台北市信義區永吉路30巷178弄1號1樓,Taipei City,台北市,https://foodpanda.com.tw/restaurant/wd50/wu-lin-cha-tai-bei-yong-ji-dian,https://www.google.com/maps/dir/?api=1&origin=%E6%9D%B1%E5%90%B3%E5%A4%A7%E5%AD%B8%E5%9F%8E%E4%B8%AD%E6%A0%A1%E5%8D%80&destination=%E6%AD%A6%E6%9E%97%E8%8C%B6%28%E5%8F%B0%E5%8C%97%E6%B0%B8%E5%90%89%E5%BA%97%29&travelmode=driving
ChIJf9HTDnKrQjQRvtcTHAVCrac,ikiwi 趣味果飲(台北信義店),25.0334,121.555,台北市大安區信義路四段293號1F,Taipei City,台北市,https://foodpanda.com.tw/restaurant/nt0h/ikiwi-qu-wei-guo-yin-tai-bei-xin-yi-dian,https://www.google.com/maps/dir/?api=1&origin=%E6%9D%B1%E5%90%B3%E5%A4%A7%E5%AD%B8%E5%9F%8E%E4%B8%AD%E6%A0%A1%E5%8D%80&destination=ikiwi+%E8%B6%A3%E5%91%B3%E6%9E%9C%E9%A3%B2%28%E5%8F%B0%E5%8C%97%E4%BF%A1%E7%BE%A9%E5%BA%97%29&travelmode=driving
ChIJ-T0oEOurQjQREMhFzXVQP54,HOHO DRINKS(台北信義店),25.0423,121.564,台北市信義區忠孝東路4段559巷16弄8號,Taipei City,台北市,https://foodpanda.com.tw/restaurant/hsru/hoho-drinks-tai-bei-xin-yi-dian,https://www.google.com/maps/dir/?api=1&origin=%E6%9D%B1%E5%90%B3%E5%A4%A7%E5%AD%B8%E5%9F%8E%E4%B8%AD%E6%A0%A1%E5%8D%80&destination=HOHO+DRINKS%28%E5%8F%B0%E5%8C%97%E4%BF%A1%E7%BE%A9%E5%BA%97%29&travelmode=driving
ChIJFy7Va8urQjQR-QczuMEDj-g,星月映辰鮮奶茶舖,25.0301,121.555,台北市大安區臨江街92號,Taipei City,台北市,https://foodpanda.com.tw/restaurant/a2bk/xing-yue-ying-chen-xian-nai-cha-pu,https://www.google.com/maps/dir/?api=1&origin=%E6%9D%B1%E5%90%B3%E5%A4%A7%E5%AD%B8%E5%9F%8E%E4%B8%AD%E6%A0%A1%E5%8D%80&destination=%E6%98%9F%E6%9C%88%E6%98%A0%E8%BE%B0%E9%AE%AE%E5%A5%B6%E8%8C%B6%E8%88%96&travelmode=driving
ChIJQ7bbtP2pQjQRAb2V9-cB224,一兩十錢青草鋪,25.0309,121.555,台北市大安區通化街39巷24號,Taipei City,台北市,https://foodpanda.com.tw/restaurant/ai7e/liang-shi-qian-qing-cao-pu,https://www.google.com/maps/dir/?api=1&origin=%E6%9D%B1%E5%90%B3%E5%A4%A7%E5%AD%B8%E5%9F%8E%E4%B8%AD%E6%A0%A1%E5%8D%80&destination=%E4%B8%80%E5%85%A9%E5%8D%81%E9%8C%A2%E9%9D%92%E8%8D%89%E9%8B%AA&travelmode=driving
ChIJE9SHF_urQjQR7iJJa2HbzG8,御心木瓜牛奶(信義店),25.0345,121.555,台北市大安區信義路四段265巷25號,Taipei City,台北市,https://foodpanda.com.tw/restaurant/x5ii/yu-xin-mu-gua-niu-nai-xin-yi-dian,https://www.google.com/maps/dir/?api=1&origin=%E6%9D%B1%E5%90%B3%E5%A4%A7%E5%AD%B8%E5%9F%8E%E4%B8%AD%E6%A0%A1%E5%8D%80&destination=%E5%BE%A1%E5%BF%83%E6%9C%A8%E7%93%9C%E7%89%9B%E5%A5%B6%28%E4%BF%A1%E7%BE%A9%E5%BA%97%29&travelmode=driving
ChIJpRjEOQCrQjQR90MwqZjnU2s,北投紅茶(信義永吉店),25.0422,121.569,台北市信義區永吉路30巷157弄2號,Taipei City,台北市,https://foodpanda.com.tw/restaurant/cx12/bei-tou-hong-cha-xin-yi-yong-ji-dian,https://www.google.com/maps/dir/?api=1&origin=%E6%9D%B1%E5%90%B3%E5%A4%A7%E5%AD%B8%E5%9F%8E%E4%B8%AD%E6%A0%A1%E5%8D%80&destination=%E5%8C%97%E6%8A%95%E7%B4%85%E8%8C%B6%28%E4%BF%A1%E7%BE%A9%E6%B0%B8%E5%90%89%E5%BA%97%29&travelmode=driving
ChIJ185macurQjQRRbnnQY8IaDo,香港大茶檔,25.0301,121.555,台北市大安區臨江街85號,Taipei City,台北市,https://foodpanda.com.tw/restaurant/z1cf/xiang-gang-da-cha-dang,https://www.google.com/maps/dir/?api=1&origin=%E6%9D%B1%E5%90%B3%E5%A4%A7%E5%AD%B8%E5%9F%8E%E4%B8%AD%E6%A0%A1%E5%8D%80&destination=%E9%A6%99%E6%B8%AF%E5%A4%A7%E8%8C%B6%E6%AA%94&travelmode=driving
ChIJhQbb-t6rQjQRnJ1RQpB_Mwc,拉拉隊(台北旗艦店),25.03,121.555,台北市大安區臨江街87號,Taipei City,台北市,https://foodpanda.com.tw/restaurant/ne5d/la-la-dui-tai-bei-qi-jian-dian,https://www.google.com/maps/dir/?api=1&origin=%E6%9D%B1%E5%90%B3%E5%A4%A7%E5%AD%B8%E5%9F%8E%E4%B8%AD%E6%A0%A1%E5%8D%80&destination=%E6%8B%89%E6%8B%89%E9%9A%8A%28%E5%8F%B0%E5%8C%97%E6%97%97%E8%89%A6%E5%BA%97%29&travelmode=driving
ChIJIeK_DQCpQjQRyoHMesmZIaM,陳記九龍城香港茶,25.0301,121.555,台北市大安區臨江街102之1號,Taipei City,台北市,https://foodpanda.com.tw/restaurant/d2ve/chen-ji-jiu-long-cheng-xiang-gang-cha,https://www.google.com/maps/dir/?api=1&origin=%E6%9D%B1%E5%90%B3%E5%A4%A7%E5%AD%B8%E5%9F%8E%E4%B8%AD%E6%A0%A1%E5%8D%80&destination=%E9%99%B3%E8%A8%98%E4%B9%9D%E9%BE%8D%E5%9F%8E%E9%A6%99%E6%B8%AF%E8%8C%B6&travelmode=driving
ChIJK2VRb1mpQjQRb6PJYyhNcDs,拌麵 • 霏等茶,25.0327,121.554,台北市大安區信義路四段294巷6號,Taipei City,台北市,https://foodpanda.com.tw/restaurant/jqjo/ban-mian-fei-deng-cha,https://www.google.com/maps/dir/?api=1&origin=%E6%9D%B1%E5%90%B3%E5%A4%A7%E5%AD%B8%E5%9F%8E%E4%B8%AD%E6%A0%A1%E5%8D%80&destination=%E6%8B%8C%E9%BA%B5+%E2%80%A2+%E9%9C%8F%E7%AD%89%E8%8C%B6&travelmode=driving
ChIJZX_NGeOrQjQRK_Oc6wevRXM,Easygoing,25.0429,121.563,台北市信義區忠孝東路四段553巷18之2號1樓,Taipei City,台北市,https://foodpanda.com.tw/restaurant/an3e/easygoing,https://www.google.com/maps/dir/?api=1&origin=%E6%9D%B1%E5%90%B3%E5%A4%A7%E5%AD%B8%E5%9F%8E%E4%B8%AD%E6%A0%A1%E5%8D%80&destination=Easygoing&travelmode=driving
ChIJh1HOWbWrQjQRfVzhjkcZwjM,鶴茶樓 鶴頂紅茶商店(大安通化店),25.0312,121.554,台北市大安區通化街30號,Taipei City,台北市,https://foodpanda.com.tw/restaurant/x97s/he-cha-lou-he-ding-hong-cha-shang-dian-da-an-tong-hua-dian,https://www.google.com/maps/dir/?api=1&origin=%E6%9D%B1%E5%90%B3%E5%A4%A7%E5%AD%B8%E5%9F%8E%E4%B8%AD%E6%A0%A1%E5%8D%80&destination=%E9%B6%B4%E8%8C%B6%E6%A8%93+%E9%B6%B4%E9%A0%82%E7%B4%85%E8%8C%B6%E5%95%86%E5%BA%97%28%E5%A4%A7%E5%AE%89%E9%80%9A%E5%8C%96%E5%BA%97%29&travelmode=driving
ChIJByXIY8urQjQRdIDErFg9xBA,奉茶,25.0305,121.554,台北市大安區通化街61號,Taipei City,台北市,https://foodpanda.com.tw/restaurant/e6ls/feng-cha,https://www.google.com/maps/dir/?api=1&origin=%E6%9D%B1%E5%90%B3%E5%A4%A7%E5%AD%B8%E5%9F%8E%E4%B8%AD%E6%A0%A1%E5%8D%80&destination=%E5%A5%89%E8%8C%B6&travelmode=driving
ChIJRdAO_ZGrQjQRWWFSovJI4ds,泰讚了泰式手工茶(台北通化店),25.031,121.554,台北市大安區通化街36號,Taipei City,台北市,https://foodpanda.com.tw/restaurant/i5aj/tai-zan-liao-tai-shi-shou-gong-cha-tai-bei-tong-hua-dian,https://www.google.com/maps/dir/?api=1&origin=%E6%9D%B1%E5%90%B3%E5%A4%A7%E5%AD%B8%E5%9F%8E%E4%B8%AD%E6%A0%A1%E5%8D%80&destination=%E6%B3%B0%E8%AE%9A%E4%BA%86%E6%B3%B0%E5%BC%8F%E6%89%8B%E5%B7%A5%E8%8C%B6%28%E5%8F%B0%E5%8C%97%E9%80%9A%E5%8C%96%E5%BA%97%29&travelmode=driving
ChIJk7kQkSWrQjQRG12nUu2p2As,鮮茶道(北市通化店),25.0305,121.554,台北市大安區通化街59號,Taipei City,台北市,https://foodpanda.com.tw/restaurant/a3kh/xian-cha-dao-bei-shi-tong-hua-dian,https://www.google.com/maps/dir/?api=1&origin=%E6%9D%B1%E5%90%B3%E5%A4%A7%E5%AD%B8%E5%9F%8E%E4%B8%AD%E6%A0%A1%E5%8D%80&destination=%E9%AE%AE%E8%8C%B6%E9%81%93%28%E5%8C%97%E5%B8%82%E9%80%9A%E5%8C%96%E5%BA%97%29&travelmode=driving
ChIJDYWeg3erQjQRhptdp2O3FgA,好吸HITS THE SPOT(台北通化店),25.0301,121.554,台北市大安區通化街77號,Taipei City,台北市,https://foodpanda.com.tw/restaurant/pz6e/hao-xi-hits-the-spot-tai-bei-tong-hua-dian,https://www.google.com/maps/dir/?api=1&origin=%E6%9D%B1%E5%90%B3%E5%A4%A7%E5%AD%B8%E5%9F%8E%E4%B8%AD%E6%A0%A1%E5%8D%80&destination=%E5%A5%BD%E5%90%B8HITS+THE+SPOT%28%E5%8F%B0%E5%8C%97%E9%80%9A%E5%8C%96%E5%BA%97%29&travelmode=driving
ChIJF_u6IIWrQjQRnCVwjU4wltE,TWO SHOTS(信義安和店),25.0333,121.554,台北市大安區信義路四段254號,Taipei City,台北市,https://foodpanda.com.tw/restaurant/o3py/two-shots-xin-yi-an-he-dian,https://www.google.com/maps/dir/?api=1&origin=%E6%9D%B1%E5%90%B3%E5%A4%A7%E5%AD%B8%E5%9F%8E%E4%B8%AD%E6%A0%A1%E5%8D%80&destination=TWO+SHOTS%28%E4%BF%A1%E7%BE%A9%E5%AE%89%E5%92%8C%E5%BA%97%29&travelmode=driving
ChIJOY4bl7mrQjQR4ai0Y0TN0-Q,有飲(台北通化店),25.0297,121.554,台北市大安區通化街97號1樓,Taipei City,台北市,https://foodpanda.com.tw/restaurant/ipjb/you-yin-tai-bei-tong-hua-dian,https://www.google.com/maps/dir/?api=1&origin=%E6%9D%B1%E5%90%B3%E5%A4%A7%E5%AD%B8%E5%9F%8E%E4%B8%AD%E6%A0%A1%E5%8D%80&destination=%E6%9C%89%E9%A3%B2%28%E5%8F%B0%E5%8C%97%E9%80%9A%E5%8C%96%E5%BA%97%29&travelmode=driving
ChIJbfOoJACrQjQRp2g5YiVf_Dw,UG(信義永吉店),25.0432,121.569,台北市信義區永吉路30巷114號,Taipei City,台北市,https://foodpanda.com.tw/restaurant/wezc/ug-xin-yi-yong-ji-dian,https://www.google.com/maps/dir/?api=1&origin=%E6%9D%B1%E5%90%B3%E5%A4%A7%E5%AD%B8%E5%9F%8E%E4%B8%AD%E6%A0%A1%E5%8D%80&destination=UG%28%E4%BF%A1%E7%BE%A9%E6%B0%B8%E5%90%89%E5%BA%97%29&travelmode=driving
ChIJZTpmtQWrQjQRXDghkhzXUtA,3% Three percent 手搖飲,25.03,121.554,台北市大安區通化街87號,Taipei City,台北市,https://foodpanda.com.tw/restaurant/gj0c/3-three-percent-shou-yao-yin,https://www.google.com/maps/dir/?api=1&origin=%E6%9D%B1%E5%90%B3%E5%A4%A7%E5%AD%B8%E5%9F%8E%E4%B8%AD%E6%A0%A1%E5%8D%80&destination=3%25+Three+percent+%E6%89%8B%E6%90%96%E9%A3%B2&travelmode=driving
ChIJU4lpww-rQjQRCwtFYPIDsKc,拾汣茶屋(永吉店),25.0433,121.569,台北市信義區永吉路30巷112號,Taipei City,台北市,https://foodpanda.com.tw/restaurant/usro/shi-cha-wu-yong-ji-dian,https://www.google.com/maps/dir/?api=1&origin=%E6%9D%B1%E5%90%B3%E5%A4%A7%E5%AD%B8%E5%9F%8E%E4%B8%AD%E6%A0%A1%E5%8D%80&destination=%E6%8B%BE%E6%B1%A3%E8%8C%B6%E5%B1%8B%28%E6%B0%B8%E5%90%89%E5%BA%97%29&travelmode=driving
ChIJmbyrPXSrQjQRML0boYf3IkA,TEATOP第一味(台北延吉店),25.0386,121.555,台北市大安區延吉街171號,Taipei City,台北市,https://foodpanda.com.tw/restaurant/dfkb/teatopdi-wei-tai-bei-yan-ji-dian,https://www.google.com/maps/dir/?api=1&origin=%E6%9D%B1%E5%90%B3%E5%A4%A7%E5%AD%B8%E5%9F%8E%E4%B8%AD%E6%A0%A1%E5%8D%80&destination=TEATOP%E7%AC%AC%E4%B8%80%E5%91%B3%28%E5%8F%B0%E5%8C%97%E5%BB%B6%E5%90%89%E5%BA%97%29&travelmode=driving
ChIJUWp0-ryrQjQRSsxFlXa6gM8,甘蔗の媽媽(信義永吉店),25.0432,121.569,台北市信義區永吉路30巷115號,Taipei City,台北市,https://foodpanda.com.tw/restaurant/kbso/gan-zhe-noma-ma-xin-yi-yong-ji-dian,https://www.google.com/maps/dir/?api=1&origin=%E6%9D%B1%E5%90%B3%E5%A4%A7%E5%AD%B8%E5%9F%8E%E4%B8%AD%E6%A0%A1%E5%8D%80&destination=%E7%94%98%E8%94%97%E3%81%AE%E5%AA%BD%E5%AA%BD%28%E4%BF%A1%E7%BE%A9%E6%B0%B8%E5%90%89%E5%BA%97%29&travelmode=driving
ChIJ4TTL-byrQjQRhbzwKjcDwuI,1998專業飲品,25.0433,121.569,台北市信義區永吉路30巷108號,Taipei City,台北市,https://foodpanda.com.tw/restaurant/w9si/1998zhuan-ye-yin-pin,https://www.google.com/maps/dir/?api=1&origin=%E6%9D%B1%E5%90%B3%E5%A4%A7%E5%AD%B8%E5%9F%8E%E4%B8%AD%E6%A0%A1%E5%8D%80&destination=1998%E5%B0%88%E6%A5%AD%E9%A3%B2%E5%93%81&travelmode=driving
ChIJGZ40HgCrQjQRofjaQ6OMSZ0,Mateas(台北永吉店),25.0434,121.569,台北市信義區永吉路30巷109號,Taipei City,台北市,https://foodpanda.com.tw/restaurant/nfvc/mateas-tai-bei-yong-ji-dian,https://www.google.com/maps/dir/?api=1&origin=%E6%9D%B1%E5%90%B3%E5%A4%A7%E5%AD%B8%E5%9F%8E%E4%B8%AD%E6%A0%A1%E5%8D%80&destination=Mateas%28%E5%8F%B0%E5%8C%97%E6%B0%B8%E5%90%89%E5%BA%97%29&travelmode=driving
ChIJ91DXvterQjQRpGWY59QG1X8,天仁茗茶(台北通化街店),25.0298,121.554,台北市大安區通化街96號,Taipei City,台北市,https://foodpanda.com.tw/restaurant/b4np/tian-ren-ming-cha-tai-bei-tong-hua-jie-dian,https://www.google.com/maps/dir/?api=1&origin=%E6%9D%B1%E5%90%B3%E5%A4%A7%E5%AD%B8%E5%9F%8E%E4%B8%AD%E6%A0%A1%E5%8D%80&destination=%E5%A4%A9%E4%BB%81%E8%8C%97%E8%8C%B6%28%E5%8F%B0%E5%8C%97%E9%80%9A%E5%8C%96%E8%A1%97%E5%BA%97%29&travelmode=driving
ChIJJdQeWgCrQjQRTOH01VCSU8M,湊湊火鍋.茶憩(Garden City大巨蛋店),25.0424,121.56,台北市信義區忠孝東路四段515號,Taipei City,台北市,https://foodpanda.com.tw/restaurant/s2gs/cou-cou-huo-guo-cha-qi-garden-cityda-ju-dan-dian,https://www.google.com/maps/dir/?api=1&origin=%E6%9D%B1%E5%90%B3%E5%A4%A7%E5%AD%B8%E5%9F%8E%E4%B8%AD%E6%A0%A1%E5%8D%80&destination=%E6%B9%8A%E6%B9%8A%E7%81%AB%E9%8D%8B.%E8%8C%B6%E6%86%A9%28Garden+City%E5%A4%A7%E5%B7%A8%E8%9B%8B%E5%BA%97%29&travelmode=driving
ChIJJXhoTO-rQjQREZfD_5udl0M,鴻糖茶坊,25.0304,121.554,台北市大安區臨江街128號,Taipei City,台北市,https://foodpanda.com.tw/restaurant/iuzg/hong-tang-cha-fang,https://www.google.com/maps/dir/?api=1&origin=%E6%9D%B1%E5%90%B3%E5%A4%A7%E5%AD%B8%E5%9F%8E%E4%B8%AD%E6%A0%A1%E5%8D%80&destination=%E9%B4%BB%E7%B3%96%E8%8C%B6%E5%9D%8A&travelmode=driving
ChIJGzXEURirQjQRoSxOzKi_-78,茶之魔手(台北延吉店),25.0395,121.555,台北市大安區延吉街159-1號,Taipei City,台北市,https://foodpanda.com.tw/restaurant/m65j/cha-zhi-mo-shou-tai-bei-yan-ji-dian,https://www.google.com/maps/dir/?api=1&origin=%E6%9D%B1%E5%90%B3%E5%A4%A7%E5%AD%B8%E5%9F%8E%E4%B8%AD%E6%A0%A1%E5%8D%80&destination=%E8%8C%B6%E4%B9%8B%E9%AD%94%E6%89%8B%28%E5%8F%B0%E5%8C%97%E5%BB%B6%E5%90%89%E5%BA%97%29&travelmode=driving
ChIJUeGayAmrQjQRCm8h3JbuS9s,半糖少冰(信義永吉店),25.0443,121.569,台北市信義區松隆路68號,Taipei City,台北市,https://foodpanda.com.tw/restaurant/jtmu/ban-tang-shao-bing-xin-yi-yong-ji-dian,https://www.google.com/maps/dir/?api=1&origin=%E6%9D%B1%E5%90%B3%E5%A4%A7%E5%AD%B8%E5%9F%8E%E4%B8%AD%E6%A0%A1%E5%8D%80&destination=%E5%8D%8A%E7%B3%96%E5%B0%91%E5%86%B0%28%E4%BF%A1%E7%BE%A9%E6%B0%B8%E5%90%89%E5%BA%97%29&travelmode=driving
ChIJGULbfgCrQjQRmVas-8MC8OU,維維風果汁舖(松德店),25.0389,121.577,台北市信義區松德路42號1樓,Taipei City,台北市,https://foodpanda.com.tw/restaurant/jstz/wei-wei-feng-guo-zhi-pu-song-de-dian,https://www.google.com/maps/dir/?api=1&origin=%E6%9D%B1%E5%90%B3%E5%A4%A7%E5%AD%B8%E5%9F%8E%E4%B8%AD%E6%A0%A1%E5%8D%80&destination=%E7%B6%AD%E7%B6%AD%E9%A2%A8%E6%9E%9C%E6%B1%81%E8%88%96%28%E6%9D%BE%E5%BE%B7%E5%BA%97%29&travelmode=driving
ChIJNWzuFoWrQjQRkj1o1yqHfTU,冰饌紅茶粉圓(台北虎林店),25.0395,121.577,台北市信義區忠孝東路五段372巷27弄98-1號,Taipei City,台北市,https://foodpanda.com.tw/restaurant/k5xi/bing-zhuan-hong-cha-fen-yuan-tai-bei-hu-lin-dian,https://www.google.com/maps/dir/?api=1&origin=%E6%9D%B1%E5%90%B3%E5%A4%A7%E5%AD%B8%E5%9F%8E%E4%B8%AD%E6%A0%A1%E5%8D%80&destination=%E5%86%B0%E9%A5%8C%E7%B4%85%E8%8C%B6%E7%B2%89%E5%9C%93%28%E5%8F%B0%E5%8C%97%E8%99%8E%E6%9E%97%E5%BA%97%29&travelmode=driving
ChIJuUSEA6SrQjQRagoLl3jcDvc,莫非茶水鋪,25.0397,121.577,台北市信義區忠孝東路五段372巷27弄77-2號,Taipei City,台北市,https://foodpanda.com.tw/restaurant/qphs/mo-fei-cha-shui-pu,https://www.google.com/maps/dir/?api=1&origin=%E6%9D%B1%E5%90%B3%E5%A4%A7%E5%AD%B8%E5%9F%8E%E4%B8%AD%E6%A0%A1%E5%8D%80&destination=%E8%8E%AB%E9%9D%9E%E8%8C%B6%E6%B0%B4%E9%8B%AA&travelmode=driving
ChIJvVm03hirQjQRgy9-5GYvxNg,茶道序,25.0397,121.577,台北市信義區虎林街145號,Taipei City,台北市,https://foodpanda.com.tw/restaurant/b9wk/cha-dao-xu,https://www.google.com/maps/dir/?api=1&origin=%E6%9D%B1%E5%90%B3%E5%A4%A7%E5%AD%B8%E5%9F%8E%E4%B8%AD%E6%A0%A1%E5%8D%80&destination=%E8%8C%B6%E9%81%93%E5%BA%8F&travelmode=driving
ChIJ5TxxZHmrQjQRHiXg6aL17lI,微胖手作茶飲(信義永春店),25.0375,121.578,台北市信義區松山路556號,Taipei City,台北市,https://foodpanda.com.tw/restaurant/eke1/wei-pang-shou-zuo-cha-yin-xin-yi-yong-chun-dian,https://www.google.com/maps/dir/?api=1&origin=%E6%9D%B1%E5%90%B3%E5%A4%A7%E5%AD%B8%E5%9F%8E%E4%B8%AD%E6%A0%A1%E5%8D%80&destination=%E5%BE%AE%E8%83%96%E6%89%8B%E4%BD%9C%E8%8C%B6%E9%A3%B2%28%E4%BF%A1%E7%BE%A9%E6%B0%B8%E6%98%A5%E5%BA%97%29&travelmode=driving
ChIJEbqTHu-rQjQRDmgcZGRGfIs,微堂(信義永春店),25.038,121.578,台北市信義區松山路532號,Taipei City,台北市,https://foodpanda.com.tw/restaurant/zan2/wei-tang-xin-yi-yong-chun-dian,https://www.google.com/maps/dir/?api=1&origin=%E6%9D%B1%E5%90%B3%E5%A4%A7%E5%AD%B8%E5%9F%8E%E4%B8%AD%E6%A0%A1%E5%8D%80&destination=%E5%BE%AE%E5%A0%82%28%E4%BF%A1%E7%BE%A9%E6%B0%B8%E6%98%A5%E5%BA%97%29&travelmode=driving
ChIJf7NPiEWrQjQRV3dWubIqagY,茶可斯Teacos(信義永春店),25.0386,121.578,台北市信義區松山路490號,Taipei City,台北市,https://foodpanda.com.tw/restaurant/hklf/cha-ke-si-teacos-xin-yi-yong-chun-dian,https://www.google.com/maps/dir/?api=1&origin=%E6%9D%B1%E5%90%B3%E5%A4%A7%E5%AD%B8%E5%9F%8E%E4%B8%AD%E6%A0%A1%E5%8D%80&destination=%E8%8C%B6%E5%8F%AF%E6%96%AFTeacos%28%E4%BF%A1%E7%BE%A9%E6%B0%B8%E6%98%A5%E5%BA%97%29&travelmode=driving
ChIJVaKys1GrQjQRklzKx9HyFeQ,新茶奶士多(台北松山店),25.0382,121.578,台北市信義區松山路520號,Taipei City,台北市,https://foodpanda.com.tw/restaurant/ivng/xin-cha-nai-shi-duo-tai-bei-song-shan-dian,https://www.google.com/maps/dir/?api=1&origin=%E6%9D%B1%E5%90%B3%E5%A4%A7%E5%AD%B8%E5%9F%8E%E4%B8%AD%E6%A0%A1%E5%8D%80&destination=%E6%96%B0%E8%8C%B6%E5%A5%B6%E5%A3%AB%E5%A4%9A%28%E5%8F%B0%E5%8C%97%E6%9D%BE%E5%B1%B1%E5%BA%97%29&travelmode=driving
ChIJVW98Y_KrQjQRXBKvsv7LHEQ,都行茶飲 Whatever Tea,25.0407,121.554,台北市大安區車層里忠孝東路4段248巷6號,Taipei City,台北市,https://foodpanda.com.tw/restaurant/dymg/du-xing-cha-yin-whatever-tea,https://www.google.com/maps/dir/?api=1&origin=%E6%9D%B1%E5%90%B3%E5%A4%A7%E5%AD%B8%E5%9F%8E%E4%B8%AD%E6%A0%A1%E5%8D%80&destination=%E9%83%BD%E8%A1%8C%E8%8C%B6%E9%A3%B2+Whatever+Tea&travelmode=driving
ChIJL7WvS9erQjQRLKVAli5B8jE,一日果汁優格專賣店,25.0393,121.553,台北市大安區忠孝東路四段216巷44號,Taipei City,台北市,https://foodpanda.com.tw/restaurant/l1zu/ri-guo-zhi-you-ge-zhuan-mai-dian,https://www.google.com/maps/dir/?api=1&origin=%E6%9D%B1%E5%90%B3%E5%A4%A7%E5%AD%B8%E5%9F%8E%E4%B8%AD%E6%A0%A1%E5%8D%80&destination=%E4%B8%80%E6%97%A5%E6%9E%9C%E6%B1%81%E5%84%AA%E6%A0%BC%E5%B0%88%E8%B3%A3%E5%BA%97&travelmode=driving
ChIJWfUhrZKrQjQR4Gmf-COn1dg,試試茶,25.04,121.553,台北市大安區忠孝東路四段216巷30號一樓A鋪,Taipei City,台北市,https://foodpanda.com.tw/restaurant/x4u9/shi-shi-cha,https://www.google.com/maps/dir/?api=1&origin=%E6%9D%B1%E5%90%B3%E5%A4%A7%E5%AD%B8%E5%9F%8E%E4%B8%AD%E6%A0%A1%E5%8D%80&destination=%E8%A9%A6%E8%A9%A6%E8%8C%B6&travelmode=driving
ChIJWwAHEg-rQjQRM4fkMLY5EeA,暖窩咖啡(台北信義永春店),25.0429,121.575,台北市信義區忠孝東路五段423巷50號1樓,Taipei City,台北市,https://foodpanda.com.tw/restaurant/xrpr/nuan-wo-ka-pei-tai-bei-xin-yi-yong-chun-dian,https://www.google.com/maps/dir/?api=1&origin=%E6%9D%B1%E5%90%B3%E5%A4%A7%E5%AD%B8%E5%9F%8E%E4%B8%AD%E6%A0%A1%E5%8D%80&destination=%E6%9A%96%E7%AA%A9%E5%92%96%E5%95%A1%28%E5%8F%B0%E5%8C%97%E4%BF%A1%E7%BE%A9%E6%B0%B8%E6%98%A5%E5%BA%97%29&travelmode=driving
ChIJP8geOoCrQjQRK17VpVSmfmQ,BlackCoffee 布樂客咖啡,25.0399,121.578,台北市信義區忠孝東路五段492巷28號,Taipei City,台北市,https://foodpanda.com.tw/restaurant/dpq2/blackcoffee-bu-le-ke-ka-pei,https://www.google.com/maps/dir/?api=1&origin=%E6%9D%B1%E5%90%B3%E5%A4%A7%E5%AD%B8%E5%9F%8E%E4%B8%AD%E6%A0%A1%E5%8D%80&destination=BlackCoffee+%E5%B8%83%E6%A8%82%E5%AE%A2%E5%92%96%E5%95%A1&travelmode=driving
ChIJS4LEg8arQjQR-JbWMrNI6nY,Golden蔗家店(台北延吉總店),25.0425,121.554,台北市大安區延吉街135號,Taipei City,台北市,https://foodpanda.com.tw/restaurant/ehsr/goldenzhe-jia-dian-tai-bei-yan-ji-zong-dian,https://www.google.com/maps/dir/?api=1&origin=%E6%9D%B1%E5%90%B3%E5%A4%A7%E5%AD%B8%E5%9F%8E%E4%B8%AD%E6%A0%A1%E5%8D%80&destination=Golden%E8%94%97%E5%AE%B6%E5%BA%97%28%E5%8F%B0%E5%8C%97%E5%BB%B6%E5%90%89%E7%B8%BD%E5%BA%97%29&travelmode=driving
ChIJaRjCNEKrQjQRj4PURYW4zAM,無飲(台北永春店),25.0412,121.578,台北市信義區松山路417號1樓,Taipei City,台北市,https://foodpanda.com.tw/restaurant/yjfc/wu-yin-tai-bei-yong-chun-dian,https://www.google.com/maps/dir/?api=1&origin=%E6%9D%B1%E5%90%B3%E5%A4%A7%E5%AD%B8%E5%9F%8E%E4%B8%AD%E6%A0%A1%E5%8D%80&destination=%E7%84%A1%E9%A3%B2%28%E5%8F%B0%E5%8C%97%E6%B0%B8%E6%98%A5%E5%BA%97%29&travelmode=driving
ChIJa_FDREWrQjQR65zCmvZoKSw,黛黛茶(台北延吉店),25.043,121.554,台北市大安區延吉街68-12號,Taipei City,台北市,https://foodpanda.com.tw/restaurant/s5ch/dai-dai-cha-tai-bei-yan-ji-dian,https://www.google.com/maps/dir/?api=1&origin=%E6%9D%B1%E5%90%B3%E5%A4%A7%E5%AD%B8%E5%9F%8E%E4%B8%AD%E6%A0%A1%E5%8D%80&destination=%E9%BB%9B%E9%BB%9B%E8%8C%B6%28%E5%8F%B0%E5%8C%97%E5%BB%B6%E5%90%89%E5%BA%97%29&travelmode=driving
ChIJNagrYlipQjQRBWXIuAxJvJk,彩虹殿-黑白木耳養生概念飲,25.0394,121.551,台北市大安區安和路一段21巷12號1F,Taipei City,台北市,https://foodpanda.com.tw/restaurant/y2fn/cai-hong-dian-hei-bai-mu-er-yang-sheng-gai-nian-yin,https://www.google.com/maps/dir/?api=1&origin=%E6%9D%B1%E5%90%B3%E5%A4%A7%E5%AD%B8%E5%9F%8E%E4%B8%AD%E6%A0%A1%E5%8D%80&destination=%E5%BD%A9%E8%99%B9%E6%AE%BF-%E9%BB%91%E7%99%BD%E6%9C%A8%E8%80%B3%E9%A4%8A%E7%94%9F%E6%A6%82%E5%BF%B5%E9%A3%B2&travelmode=driving
ChIJo64DJVurQjQRifE_5U3ftNs,丰玉蜂蜜飲品專門(台北延吉店),25.0432,121.554,台北市大安區延吉街105號,Taipei City,台北市,https://foodpanda.com.tw/restaurant/d95c/feng-yu-feng-mi-yin-pin-zhuan-men-tai-bei-yan-ji-dian,https://www.google.com/maps/dir/?api=1&origin=%E6%9D%B1%E5%90%B3%E5%A4%A7%E5%AD%B8%E5%9F%8E%E4%B8%AD%E6%A0%A1%E5%8D%80&destination=%E4%B8%B0%E7%8E%89%E8%9C%82%E8%9C%9C%E9%A3%B2%E5%93%81%E5%B0%88%E9%96%80%28%E5%8F%B0%E5%8C%97%E5%BB%B6%E5%90%89%E5%BA%97%29&travelmode=driving
ChIJo3HRTqGrQjQRFbi6Wbb5ggE,Mr.papa x Ray Cafe,25.0408,121.552,台北市大安區忠孝東路四段170巷5弄22號,Taipei City,台北市,https://foodpanda.com.tw/restaurant/kfva/mr-papa-x-ray-cafe,https://www.google.com/maps/dir/?api=1&origin=%E6%9D%B1%E5%90%B3%E5%A4%A7%E5%AD%B8%E5%9F%8E%E4%B8%AD%E6%A0%A1%E5%8D%80&destination=Mr.papa+x+Ray+Cafe&travelmode=driving
ChIJSQGJ-umrQjQRRfk3xwerc-s,917 好事咖啡創意廚房,25.022,121.555,台北市大安區安居街8巷19號,Taipei City,台北市,https://foodpanda.com.tw/restaurant/y3oj/917-hao-shi-ka-pei-chuang-yi-chu-fang,https://www.google.com/maps/dir/?api=1&origin=%E6%9D%B1%E5%90%B3%E5%A4%A7%E5%AD%B8%E5%9F%8E%E4%B8%AD%E6%A0%A1%E5%8D%80&destination=917+%E5%A5%BD%E4%BA%8B%E5%92%96%E5%95%A1%E5%89%B5%E6%84%8F%E5%BB%9A%E6%88%BF&travelmode=driving
ChIJjZdHFgyrQjQRTZ2kEIXEOmY,茶山小,25.0244,121.552,台北市大安區和平東路三段123號,Taipei City,台北市,https://foodpanda.com.tw/restaurant/jkzd/cha-shan-xiao,https://www.google.com/maps/dir/?api=1&origin=%E6%9D%B1%E5%90%B3%E5%A4%A7%E5%AD%B8%E5%9F%8E%E4%B8%AD%E6%A0%A1%E5%8D%80&destination=%E8%8C%B6%E5%B1%B1%E5%B0%8F&travelmode=driving
ChIJOdHWx6yrQjQRnb88OVTWvxo,ODD ONE OUT(OOO Tea),25.0426,121.552,台北市大安區敦化南路一段187巷48號,Taipei City,台北市,https://foodpanda.com.tw/restaurant/xizk/odd-one-out-ooo-tea,https://www.google.com/maps/dir/?api=1&origin=%E6%9D%B1%E5%90%B3%E5%A4%A7%E5%AD%B8%E5%9F%8E%E4%B8%AD%E6%A0%A1%E5%8D%80&destination=ODD+ONE+OUT%28OOO+Tea%29&travelmode=driving
ChIJQYKbMFOrQjQRueMpTwDdL9s,Motherblends City(台北忠孝店),25.0432,121.552,台北市大安區忠孝東路四段205巷29弄2號,Taipei City,台北市,https://foodpanda.com.tw/restaurant/jrmq/motherblends-city-tai-bei-zhong-xiao-dian,https://www.google.com/maps/dir/?api=1&origin=%E6%9D%B1%E5%90%B3%E5%A4%A7%E5%AD%B8%E5%9F%8E%E4%B8%AD%E6%A0%A1%E5%8D%80&destination=Motherblends+City%28%E5%8F%B0%E5%8C%97%E5%BF%A0%E5%AD%9D%E5%BA%97%29&travelmode=driving
ChIJLcQMkLyrQjQRJmbCbxJqWxc,山焙(忠孝敦化店),25.0405,121.55,台北市大安區敦化南路一段233巷11號,Taipei City,台北市,https://foodpanda.com.tw/restaurant/lzps/shan-bei-zhong-xiao-dun-hua-dian,https://www.google.com/maps/dir/?api=1&origin=%E6%9D%B1%E5%90%B3%E5%A4%A7%E5%AD%B8%E5%9F%8E%E4%B8%AD%E6%A0%A1%E5%8D%80&destination=%E5%B1%B1%E7%84%99%28%E5%BF%A0%E5%AD%9D%E6%95%A6%E5%8C%96%E5%BA%97%29&travelmode=driving
ChIJcyl_kFCrQjQRGQgatR53ulA,合集良飲,25.0489,121.565,台北市松山區八德路四段214號,Taipei City,台北市,https://foodpanda.com.tw/restaurant/e6nc/he-ji-liang-yin,https://www.google.com/maps/dir/?api=1&origin=%E6%9D%B1%E5%90%B3%E5%A4%A7%E5%AD%B8%E5%9F%8E%E4%B8%AD%E6%A0%A1%E5%8D%80&destination=%E5%90%88%E9%9B%86%E8%89%AF%E9%A3%B2&travelmode=driving
ChIJH5Wd5ImpQjQR9Z1SujIfbHk,毛青茶室,25.0489,121.564,台北市松山區八德路四段198號,Taipei City,台北市,https://foodpanda.com.tw/restaurant/f7zh/mao-qing-cha-shi,https://www.google.com/maps/dir/?api=1&origin=%E6%9D%B1%E5%90%B3%E5%A4%A7%E5%AD%B8%E5%9F%8E%E4%B8%AD%E6%A0%A1%E5%8D%80&destination=%E6%AF%9B%E9%9D%92%E8%8C%B6%E5%AE%A4&travelmode=driving
ChIJs4q8IL6pQjQR4_shGg8nUiw,Coffee.Tea.Or,25.0417,121.551,台北市大安區忠孝東路四段175號,Taipei City,台北市,https://foodpanda.com.tw/restaurant/b8kv/coffee-tea-or,https://www.google.com/maps/dir/?api=1&origin=%E6%9D%B1%E5%90%B3%E5%A4%A7%E5%AD%B8%E5%9F%8E%E4%B8%AD%E6%A0%A1%E5%8D%80&destination=Coffee.Tea.Or&travelmode=driving
ChIJMZzU1carQjQRHuZDVz01Tq0,老賴茶棧(台北松山店),25.0479,121.558,台北市松山區光復南路3號,Taipei City,台北市,https://foodpanda.com.tw/restaurant/a0wx/lao-lai-cha-zhan-tai-bei-song-shan-dian,https://www.google.com/maps/dir/?api=1&origin=%E6%9D%B1%E5%90%B3%E5%A4%A7%E5%AD%B8%E5%9F%8E%E4%B8%AD%E6%A0%A1%E5%8D%80&destination=%E8%80%81%E8%B3%B4%E8%8C%B6%E6%A3%A7%28%E5%8F%B0%E5%8C%97%E6%9D%BE%E5%B1%B1%E5%BA%97%29&travelmode=driving
ChIJhwPrHMWrQjQRH9dTBSozZpc,SOMA(台北敦化店),25.0426,121.551,台北市大安區敦化南路一段187巷23號1樓,Taipei City,台北市,https://foodpanda.com.tw/restaurant/sztg/soma-tai-bei-dun-hua-dian,https://www.google.com/maps/dir/?api=1&origin=%E6%9D%B1%E5%90%B3%E5%A4%A7%E5%AD%B8%E5%9F%8E%E4%B8%AD%E6%A0%A1%E5%8D%80&destination=SOMA%28%E5%8F%B0%E5%8C%97%E6%95%A6%E5%8C%96%E5%BA%97%29&travelmode=driving
ChIJse9MygSoQjQR5rz9rIKdn4o,清心福全(板橋漢生西店),25.0194,121.463,新北市板橋區漢生西路84號,New Taipei City,新北市,https://foodpanda.com.tw/restaurant/n7ba/qing-xin-fu-quan-ban-qiao-han-sheng-xi-dian,https://www.google.com/maps/dir/?api=1&origin=%E6%9D%B1%E5%90%B3%E5%A4%A7%E5%AD%B8%E5%9F%8E%E4%B8%AD%E6%A0%A1%E5%8D%80&destination=%E6%B8%85%E5%BF%83%E7%A6%8F%E5%85%A8%28%E6%9D%BF%E6%A9%8B%E6%BC%A2%E7%94%9F%E8%A5%BF%E5%BA%97%29&travelmode=driving
ChIJTyQNeKOpQjQRCuq2yf-O5-s,金茶伍手作茶飲(板橋介壽門市),25.0201,121.467,新北市板橋區介壽街14號,New Taipei City,新北市,https://foodpanda.com.tw/restaurant/jgva/jin-cha-wu-shou-zuo-cha-yin-ban-qiao-jie-shou-men-shi,https://www.google.com/maps/dir/?api=1&origin=%E6%9D%B1%E5%90%B3%E5%A4%A7%E5%AD%B8%E5%9F%8E%E4%B8%AD%E6%A0%A1%E5%8D%80&destination=%E9%87%91%E8%8C%B6%E4%BC%8D%E6%89%8B%E4%BD%9C%E8%8C%B6%E9%A3%B2%28%E6%9D%BF%E6%A9%8B%E4%BB%8B%E5%A3%BD%E9%96%80%E5%B8%82%29&travelmode=driving
ChIJQwTyQZ6pQjQRRS8AGNC_igU,天湧茶 vinegar tea,25.0172,121.464,新北市板橋區文化路一段213號,New Taipei City,新北市,https://foodpanda.com.tw/restaurant/d1mq/tian-yong-cha-vinegar-tea,https://www.google.com/maps/dir/?api=1&origin=%E6%9D%B1%E5%90%B3%E5%A4%A7%E5%AD%B8%E5%9F%8E%E4%B8%AD%E6%A0%A1%E5%8D%80&destination=%E5%A4%A9%E6%B9%A7%E8%8C%B6+vinegar+tea&travelmode=driving
ChIJrZJYVHqpQjQRg09WIrCHKcY,李記紅茶冰(板橋陽明店),25.021,121.462,新北市板橋區新海路16號,New Taipei City,新北市,https://foodpanda.com.tw/restaurant/kexd/li-ji-hong-cha-bing-ban-qiao-yang-ming-dian,https://www.google.com/maps/dir/?api=1&origin=%E6%9D%B1%E5%90%B3%E5%A4%A7%E5%AD%B8%E5%9F%8E%E4%B8%AD%E6%A0%A1%E5%8D%80&destination=%E6%9D%8E%E8%A8%98%E7%B4%85%E8%8C%B6%E5%86%B0%28%E6%9D%BF%E6%A9%8B%E9%99%BD%E6%98%8E%E5%BA%97%29&travelmode=driving
ChIJw1aRChqoQjQRxkbhS40b8MM,Louisa 路易莎(板橋國光店),25.0187,121.461,新北市板橋區國光路189-5號,New Taipei City,新北市,https://foodpanda.com.tw/restaurant/ps82/louisa-lu-yi-sha-ban-qiao-guo-guang-dian,https://www.google.com/maps/dir/?api=1&origin=%E6%9D%B1%E5%90%B3%E5%A4%A7%E5%AD%B8%E5%9F%8E%E4%B8%AD%E6%A0%A1%E5%8D%80&destination=Louisa+%E8%B7%AF%E6%98%93%E8%8E%8E%28%E6%9D%BF%E6%A9%8B%E5%9C%8B%E5%85%89%E5%BA%97%29&travelmode=driving
ChIJtQ2LoRGpQjQRKVjXqXLUXAU,侍茶匠(板橋中正店),25.0171,121.456,新北市板橋區中正路168號,New Taipei City,新北市,https://foodpanda.com.tw/restaurant/tnc5/shi-cha-jiang-ban-qiao-zhong-zheng-dian,https://www.google.com/maps/dir/?api=1&origin=%E6%9D%B1%E5%90%B3%E5%A4%A7%E5%AD%B8%E5%9F%8E%E4%B8%AD%E6%A0%A1%E5%8D%80&destination=%E4%BE%8D%E8%8C%B6%E5%8C%A0%28%E6%9D%BF%E6%A9%8B%E4%B8%AD%E6%AD%A3%E5%BA%97%29&travelmode=driving
ChIJI0WkFRGoQjQRNci_hiSp_s0,CoCo都可(板橋新海店),25.0226,121.461,新北市板橋區新海路105號,New Taipei City,新北市,https://foodpanda.com.tw/restaurant/b87p/cocodu-ke-ban-qiao-xin-hai-dian,https://www.google.com/maps/dir/?api=1&origin=%E6%9D%B1%E5%90%B3%E5%A4%A7%E5%AD%B8%E5%9F%8E%E4%B8%AD%E6%A0%A1%E5%8D%80&destination=CoCo%E9%83%BD%E5%8F%AF%28%E6%9D%BF%E6%A9%8B%E6%96%B0%E6%B5%B7%E5%BA%97%29&travelmode=driving
ChIJ_YlQKxyoQjQRKffzqHnFd1w,50嵐(板橋文化店),25.0216,121.467,新北市板橋區文化路一段379號,New Taipei City,新北市,https://foodpanda.com.tw/restaurant/e4zy/50lan-ban-qiao-wen-hua-dian,https://www.google.com/maps/dir/?api=1&origin=%E6%9D%B1%E5%90%B3%E5%A4%A7%E5%AD%B8%E5%9F%8E%E4%B8%AD%E6%A0%A1%E5%8D%80&destination=50%E5%B5%90%28%E6%9D%BF%E6%A9%8B%E6%96%87%E5%8C%96%E5%BA%97%29&travelmode=driving
ChIJ8wiKVD6oQjQRhSqzPTRTB80,茶朵木teas(莒光店),25.0243,121.471,新北市板橋區莒光路59號,New Taipei City,新北市,https://foodpanda.com.tw/restaurant/d9od/cha-duo-mu-teas-ju-guang-dian,https://www.google.com/maps/dir/?api=1&origin=%E6%9D%B1%E5%90%B3%E5%A4%A7%E5%AD%B8%E5%9F%8E%E4%B8%AD%E6%A0%A1%E5%8D%80&destination=%E8%8C%B6%E6%9C%B5%E6%9C%A8teas%28%E8%8E%92%E5%85%89%E5%BA%97%29&travelmode=driving
ChIJ7ZaTqaQDaDQRDvK-q8Mj0GM,好吸HITS THE SPOT(南雅店),25.006,121.454,新北市板橋區南雅東路27-9號,New Taipei City,新北市,https://foodpanda.com.tw/restaurant/locy/hao-xi-hits-the-spot-nan-ya-dian,https://www.google.com/maps/dir/?api=1&origin=%E6%9D%B1%E5%90%B3%E5%A4%A7%E5%AD%B8%E5%9F%8E%E4%B8%AD%E6%A0%A1%E5%8D%80&destination=%E5%A5%BD%E5%90%B8HITS+THE+SPOT%28%E5%8D%97%E9%9B%85%E5%BA%97%29&travelmode=driving
ChIJa11xV9SpQjQROGVuUMNUZms,Mr.Wish 鮮果茶玩家(中和環球店),25.0064,121.472,新北市中和區中山路三段188號,New Taipei City,新北市,https://foodpanda.com.tw/restaurant/qlbp/mr-wish-xian-guo-cha-wan-jia-zhong-he-huan-qiu-dian,https://www.google.com/maps/dir/?api=1&origin=%E6%9D%B1%E5%90%B3%E5%A4%A7%E5%AD%B8%E5%9F%8E%E4%B8%AD%E6%A0%A1%E5%8D%80&destination=Mr.Wish+%E9%AE%AE%E6%9E%9C%E8%8C%B6%E7%8E%A9%E5%AE%B6%28%E4%B8%AD%E5%92%8C%E7%92%B0%E7%90%83%E5%BA%97%29&travelmode=driving
ChIJHUJzmAIDaDQRkQ3GpRV4Lio,五桐號 WooTEA(板橋四川店),25.0024,121.46,新北市板橋區四川路一段200號1樓,New Taipei City,新北市,https://foodpanda.com.tw/restaurant/r45m/wu-tong-hao-wootea-ban-qiao-si-chuan-dian,https://www.google.com/maps/dir/?api=1&origin=%E6%9D%B1%E5%90%B3%E5%A4%A7%E5%AD%B8%E5%9F%8E%E4%B8%AD%E6%A0%A1%E5%8D%80&destination=%E4%BA%94%E6%A1%90%E8%99%9F+WooTEA%28%E6%9D%BF%E6%A9%8B%E5%9B%9B%E5%B7%9D%E5%BA%97%29&travelmode=driving
ChIJj09iLUGoQjQRCcNdb-TT02A,咕嚕咕嚕現打果汁,25.0296,121.474,新北市板橋區松柏街9號,New Taipei City,新北市,https://foodpanda.com.tw/restaurant/kmir/gu-lu-gu-lu-xian-da-guo-zhi,https://www.google.com/maps/dir/?api=1&origin=%E6%9D%B1%E5%90%B3%E5%A4%A7%E5%AD%B8%E5%9F%8E%E4%B8%AD%E6%A0%A1%E5%8D%80&destination=%E5%92%95%E5%9A%95%E5%92%95%E5%9A%95%E7%8F%BE%E6%89%93%E6%9E%9C%E6%B1%81&travelmode=driving
ChIJobpD8Z4CaDQRCeaDLE-Mdm4,唐棉(新北中和莒光店),25.0025,121.472,新北市中和區莒光路94號,New Taipei City,新北市,https://foodpanda.com.tw/restaurant/w4rw/tang-mian-xin-bei-zhong-he-ju-guang-dian,https://www.google.com/maps/dir/?api=1&origin=%E6%9D%B1%E5%90%B3%E5%A4%A7%E5%AD%B8%E5%9F%8E%E4%B8%AD%E6%A0%A1%E5%8D%80&destination=%E5%94%90%E6%A3%89%28%E6%96%B0%E5%8C%97%E4%B8%AD%E5%92%8C%E8%8E%92%E5%85%89%E5%BA%97%29&travelmode=driving
ChIJf60c2FoDaDQRpSk7JwyxVzM,拾汣茶屋(土城學府店),24.9884,121.457,新北市土城區學府路一段62號,New Taipei City,新北市,https://foodpanda.com.tw/restaurant/sw4j/shi-cha-wu-tu-cheng-xue-fu-dian,https://www.google.com/maps/dir/?api=1&origin=%E6%9D%B1%E5%90%B3%E5%A4%A7%E5%AD%B8%E5%9F%8E%E4%B8%AD%E6%A0%A1%E5%8D%80&destination=%E6%8B%BE%E6%B1%A3%E8%8C%B6%E5%B1%8B%28%E5%9C%9F%E5%9F%8E%E5%AD%B8%E5%BA%9C%E5%BA%97%29&travelmode=driving
ChIJ5z_TkoepQjQRZc4_JL6S0aM,迷客夏 Milksha(環球購物中心板橋車站),25.0137,121.463,新北市板橋區縣民大道二段7號1樓,New Taipei City,新北市,https://foodpanda.com.tw/restaurant/od7n/mi-ke-xia-milksha-huan-qiu-gou-wu-zhong-xin-ban-qiao-che-zhan,https://www.google.com/maps/dir/?api=1&origin=%E6%9D%B1%E5%90%B3%E5%A4%A7%E5%AD%B8%E5%9F%8E%E4%B8%AD%E6%A0%A1%E5%8D%80&destination=%E8%BF%B7%E5%AE%A2%E5%A4%8F+Milksha%28%E7%92%B0%E7%90%83%E8%B3%BC%E7%89%A9%E4%B8%AD%E5%BF%83%E6%9D%BF%E6%A9%8B%E8%BB%8A%E7%AB%99%29&travelmode=driving
ChIJcUsbxqipQjQRCIkxo1a4AJE,COMEBUY(板橋致理店),25.0204,121.463,新北市板橋區文化路一段313號,New Taipei City,新北市,https://foodpanda.com.tw/restaurant/rymb/comebuy-ban-qiao-zhi-li-dian,https://www.google.com/maps/dir/?api=1&origin=%E6%9D%B1%E5%90%B3%E5%A4%A7%E5%AD%B8%E5%9F%8E%E4%B8%AD%E6%A0%A1%E5%8D%80&destination=COMEBUY%28%E6%9D%BF%E6%A9%8B%E8%87%B4%E7%90%86%E5%BA%97%29&travelmode=driving
ChIJ_aVXVOOpQjQRvdHgmjmaTQY,好了啦紅茶冰(板橋中正店),25.0193,121.458,新北市板橋區中正路216巷73號,New Taipei City,新北市,https://foodpanda.com.tw/restaurant/e8ei/hao-liao-la-hong-cha-bing-ban-qiao-zhong-zheng-dian,https://www.google.com/maps/dir/?api=1&origin=%E6%9D%B1%E5%90%B3%E5%A4%A7%E5%AD%B8%E5%9F%8E%E4%B8%AD%E6%A0%A1%E5%8D%80&destination=%E5%A5%BD%E4%BA%86%E5%95%A6%E7%B4%85%E8%8C%B6%E5%86%B0%28%E6%9D%BF%E6%A9%8B%E4%B8%AD%E6%AD%A3%E5%BA%97%29&travelmode=driving
ChIJB2vrSxaoQjQRDh49mntPGHY,STARBUCKS 星巴克(板橋新埔門市),25.0205,121.467,新北市板橋區文化路一段220號,New Taipei City,新北市,https://foodpanda.com.tw/restaurant/y1by/starbucks-xing-ba-ke-ban-qiao-xin-bu-men-shi,https://www.google.com/maps/dir/?api=1&origin=%E6%9D%B1%E5%90%B3%E5%A4%A7%E5%AD%B8%E5%9F%8E%E4%B8%AD%E6%A0%A1%E5%8D%80&destination=STARBUCKS+%E6%98%9F%E5%B7%B4%E5%85%8B%28%E6%9D%BF%E6%A9%8B%E6%96%B0%E5%9F%94%E9%96%80%E5%B8%82%29&travelmode=driving
ChIJtXw-EwCpQjQRvtAy0ru_8qA,十丈波紅茶(板橋文化店),25.0198,121.468,新北市板橋區文化路一段188巷7弄13號,New Taipei City,新北市,https://foodpanda.com.tw/restaurant/k0ny/shi-zhang-bo-hong-cha-ban-qiao-wen-hua-dian,https://www.google.com/maps/dir/?api=1&origin=%E6%9D%B1%E5%90%B3%E5%A4%A7%E5%AD%B8%E5%9F%8E%E4%B8%AD%E6%A0%A1%E5%8D%80&destination=%E5%8D%81%E4%B8%88%E6%B3%A2%E7%B4%85%E8%8C%B6%28%E6%9D%BF%E6%A9%8B%E6%96%87%E5%8C%96%E5%BA%97%29&travelmode=driving
ChIJ629d2UGpQjQRn1bUPp7wurg,日日裝茶(板橋文化店),25.0209,121.467,新北市板橋區文化路一段343號1樓,New Taipei City,新北市,https://foodpanda.com.tw/restaurant/h6li/ri-ri-zhuang-cha-ban-qiao-wen-hua-dian,https://www.google.com/maps/dir/?api=1&origin=%E6%9D%B1%E5%90%B3%E5%A4%A7%E5%AD%B8%E5%9F%8E%E4%B8%AD%E6%A0%A1%E5%8D%80&destination=%E6%97%A5%E6%97%A5%E8%A3%9D%E8%8C%B6%28%E6%9D%BF%E6%A9%8B%E6%96%87%E5%8C%96%E5%BA%97%29&travelmode=driving
ChIJUadvNwCpQjQRHIIRzah3ips,再睡5分鐘(板橋陽明店),25.0219,121.466,新北市板橋區陽明街38號,New Taipei City,新北市,https://foodpanda.com.tw/restaurant/t704/zai-shui-5fen-zhong-ban-qiao-yang-ming-dian,https://www.google.com/maps/dir/?api=1&origin=%E6%9D%B1%E5%90%B3%E5%A4%A7%E5%AD%B8%E5%9F%8E%E4%B8%AD%E6%A0%A1%E5%8D%80&destination=%E5%86%8D%E7%9D%A15%E5%88%86%E9%90%98%28%E6%9D%BF%E6%A9%8B%E9%99%BD%E6%98%8E%E5%BA%97%29&travelmode=driving
ChIJTwo1avmpQjQRKjg9j0eFb24,漢森·茗 Handsome Tea(板橋中正店),25.0153,121.456,新北市板橋區中正路123號,New Taipei City,新北市,https://foodpanda.com.tw/restaurant/lvj6/han-sen-ming-handsome-tea-ban-qiao-zhong-zheng-dian,https://www.google.com/maps/dir/?api=1&origin=%E6%9D%B1%E5%90%B3%E5%A4%A7%E5%AD%B8%E5%9F%8E%E4%B8%AD%E6%A0%A1%E5%8D%80&destination=%E6%BC%A2%E6%A3%AE%C2%B7%E8%8C%97+Handsome+Tea%28%E6%9D%BF%E6%A9%8B%E4%B8%AD%E6%AD%A3%E5%BA%97%29&travelmode=driving
ChIJm8b0gc-pQjQRvCBJMfzx1lQ,TEATOP 第一味(板橋民權店),25.0109,121.463,新北市板橋區民權路25號1樓,New Taipei City,新北市,https://foodpanda.com.tw/restaurant/ptwu/teatop-di-wei-ban-qiao-min-quan-dian,https://www.google.com/maps/dir/?api=1&origin=%E6%9D%B1%E5%90%B3%E5%A4%A7%E5%AD%B8%E5%9F%8E%E4%B8%AD%E6%A0%A1%E5%8D%80&destination=TEATOP+%E7%AC%AC%E4%B8%80%E5%91%B3%28%E6%9D%BF%E6%A9%8B%E6%B0%91%E6%AC%8A%E5%BA%97%29&travelmode=driving
ChIJx-dmmhaoQjQRPvXKfPHRNI4,可不可熟成紅茶(板橋陽明店),25.0227,121.465,新北市板橋區陽明街72號,New Taipei City,新北市,https://foodpanda.com.tw/restaurant/lk72/ke-bu-ke-shou-cheng-hong-cha-ban-qiao-yang-ming-dian,https://www.google.com/maps/dir/?api=1&origin=%E6%9D%B1%E5%90%B3%E5%A4%A7%E5%AD%B8%E5%9F%8E%E4%B8%AD%E6%A0%A1%E5%8D%80&destination=%E5%8F%AF%E4%B8%8D%E5%8F%AF%E7%86%9F%E6%88%90%E7%B4%85%E8%8C%B6%28%E6%9D%BF%E6%A9%8B%E9%99%BD%E6%98%8E%E5%BA%97%29&travelmode=driving
ChIJl--_1pupQjQRS16Yo15QLAs,小佐お茶作(板橋新埔店),25.0208,121.468,新北市板橋區文化路一段270巷1弄2號,New Taipei City,新北市,https://foodpanda.com.tw/restaurant/tzr6/xiao-zuo-ocha-zuo-ban-qiao-xin-bu-dian,https://www.google.com/maps/dir/?api=1&origin=%E6%9D%B1%E5%90%B3%E5%A4%A7%E5%AD%B8%E5%9F%8E%E4%B8%AD%E6%A0%A1%E5%8D%80&destination=%E5%B0%8F%E4%BD%90%E3%81%8A%E8%8C%B6%E4%BD%9C%28%E6%9D%BF%E6%A9%8B%E6%96%B0%E5%9F%94%E5%BA%97%29&travelmode=driving
ChIJ-7pdpheoQjQRIenWvOOw_qg,85度C(板橋大仁店),25.017,121.456,新北市板橋區大仁街16號,New Taipei City,新北市,https://foodpanda.com.tw/restaurant/b0uk/85du-c-ban-qiao-da-ren-dian,https://www.google.com/maps/dir/?api=1&origin=%E6%9D%B1%E5%90%B3%E5%A4%A7%E5%AD%B8%E5%9F%8E%E4%B8%AD%E6%A0%A1%E5%8D%80&destination=85%E5%BA%A6C%28%E6%9D%BF%E6%A9%8B%E5%A4%A7%E4%BB%81%E5%BA%97%29&travelmode=driving
ChIJAwr_DHsdaDQRdnwkVbIp_dE,鮮茶道(板橋體育館店),25.0149,121.456,新北市板橋區中正路101號,New Taipei City,新北市,https://foodpanda.com.tw/restaurant/a6cy/xian-cha-dao-ban-qiao-ti-yu-guan-dian,https://www.google.com/maps/dir/?api=1&origin=%E6%9D%B1%E5%90%B3%E5%A4%A7%E5%AD%B8%E5%9F%8E%E4%B8%AD%E6%A0%A1%E5%8D%80&destination=%E9%AE%AE%E8%8C%B6%E9%81%93%28%E6%9D%BF%E6%A9%8B%E9%AB%94%E8%82%B2%E9%A4%A8%E5%BA%97%29&travelmode=driving
ChIJbWGzLzCpQjQRnv6WKOzWtG0,得正 OOLONG TEA PROJECT(板橋新民計劃),25.0109,121.464,新北市板橋區新民街41號1樓,New Taipei City,新北市,https://foodpanda.com.tw/restaurant/rfb4/de-zheng-oolong-tea-project-ban-qiao-xin-min-ji-hua,https://www.google.com/maps/dir/?api=1&origin=%E6%9D%B1%E5%90%B3%E5%A4%A7%E5%AD%B8%E5%9F%8E%E4%B8%AD%E6%A0%A1%E5%8D%80&destination=%E5%BE%97%E6%AD%A3+OOLONG+TEA+PROJECT%28%E6%9D%BF%E6%A9%8B%E6%96%B0%E6%B0%91%E8%A8%88%E5%8A%83%29&travelmode=driving
ChIJdcrlc_KpQjQRLhb1VMfF530,甘鹿兒,25.0183,121.456,新北市板橋區中正路212之8號1樓,New Taipei City,新北市,https://foodpanda.com.tw/restaurant/vpus/gan-lu-er,https://www.google.com/maps/dir/?api=1&origin=%E6%9D%B1%E5%90%B3%E5%A4%A7%E5%AD%B8%E5%9F%8E%E4%B8%AD%E6%A0%A1%E5%8D%80&destination=%E7%94%98%E9%B9%BF%E5%85%92&travelmode=driving
ChIJs_DMO16pQjQRB84p5v-2tGw,茶聚(板橋大仁店),25.0169,121.456,新北市板橋區大仁街25號,New Taipei City,新北市,https://foodpanda.com.tw/restaurant/ylbx/cha-ju-ban-qiao-da-ren-dian,https://www.google.com/maps/dir/?api=1&origin=%E6%9D%B1%E5%90%B3%E5%A4%A7%E5%AD%B8%E5%9F%8E%E4%B8%AD%E6%A0%A1%E5%8D%80&destination=%E8%8C%B6%E8%81%9A%28%E6%9D%BF%E6%A9%8B%E5%A4%A7%E4%BB%81%E5%BA%97%29&travelmode=driving
ChIJb5c1PfSpQjQRABhfr2SRoIM,甘蔗の媽媽(板橋中山店),25.0104,121.462,新北市板橋區中山路一段102-3號,New Taipei City,新北市,https://foodpanda.com.tw/restaurant/lhth/gan-zhe-noma-ma-ban-qiao-zhong-shan-dian,https://www.google.com/maps/dir/?api=1&origin=%E6%9D%B1%E5%90%B3%E5%A4%A7%E5%AD%B8%E5%9F%8E%E4%B8%AD%E6%A0%A1%E5%8D%80&destination=%E7%94%98%E8%94%97%E3%81%AE%E5%AA%BD%E5%AA%BD%28%E6%9D%BF%E6%A9%8B%E4%B8%AD%E5%B1%B1%E5%BA%97%29&travelmode=driving
ChIJVQGphN6pQjQR0Dhe-6qSpyw,烏弄(板橋府中店),25.0104,121.462,新北市板橋區中山路一段102號,New Taipei City,新北市,https://foodpanda.com.tw/restaurant/l8nk/wu-nong-ban-qiao-fu-zhong-dian,https://www.google.com/maps/dir/?api=1&origin=%E6%9D%B1%E5%90%B3%E5%A4%A7%E5%AD%B8%E5%9F%8E%E4%B8%AD%E6%A0%A1%E5%8D%80&destination=%E7%83%8F%E5%BC%84%28%E6%9D%BF%E6%A9%8B%E5%BA%9C%E4%B8%AD%E5%BA%97%29&travelmode=driving
ChIJMfrXGJepQjQRSTKfeb4lVDs,鶴茶樓(板橋新埔店),25.0237,121.467,新北市板橋區民生路三段11號,New Taipei City,新北市,https://foodpanda.com.tw/restaurant/lctl/he-cha-lou-ban-qiao-xin-bu-dian,https://www.google.com/maps/dir/?api=1&origin=%E6%9D%B1%E5%90%B3%E5%A4%A7%E5%AD%B8%E5%9F%8E%E4%B8%AD%E6%A0%A1%E5%8D%80&destination=%E9%B6%B4%E8%8C%B6%E6%A8%93%28%E6%9D%BF%E6%A9%8B%E6%96%B0%E5%9F%94%E5%BA%97%29&travelmode=driving
ChIJKzvVQ9ypQjQRIE_x9bZmaHY,珍煮丹(板橋府中店),25.0087,121.461,新北市��橋區中山路一段29號1樓,New Taipei City,新北市,https://foodpanda.com.tw/restaurant/ztmh/zhen-zhu-dan-ban-qiao-fu-zhong-dian,https://www.google.com/maps/dir/?api=1&origin=%E6%9D%B1%E5%90%B3%E5%A4%A7%E5%AD%B8%E5%9F%8E%E4%B8%AD%E6%A0%A1%E5%8D%80&destination=%E7%8F%8D%E7%85%AE%E4%B8%B9%28%E6%9D%BF%E6%A9%8B%E5%BA%9C%E4%B8%AD%E5%BA%97%29&travelmode=driving
ChIJd3_t9sqpQjQRrcI4HYvcw5w,武林茶(新北四維店),25.025,121.465,新北市板橋區四維路123號,New Taipei City,新北市,https://foodpanda.com.tw/restaurant/z3gt/wu-lin-cha-xin-bei-si-wei-dian,https://www.google.com/maps/dir/?api=1&origin=%E6%9D%B1%E5%90%B3%E5%A4%A7%E5%AD%B8%E5%9F%8E%E4%B8%AD%E6%A0%A1%E5%8D%80&destination=%E6%AD%A6%E6%9E%97%E8%8C%B6%28%E6%96%B0%E5%8C%97%E5%9B%9B%E7%B6%AD%E5%BA%97%29&travelmode=driving
ChIJO8suEEepQjQRViM865FoCqg,李茶,25.0094,121.458,新北市板橋區東門街2號,New Taipei City,新北市,https://foodpanda.com.tw/restaurant/jhkg/li-cha,https://www.google.com/maps/dir/?api=1&origin=%E6%9D%B1%E5%90%B3%E5%A4%A7%E5%AD%B8%E5%9F%8E%E4%B8%AD%E6%A0%A1%E5%8D%80&destination=%E6%9D%8E%E8%8C%B6&travelmode=driving
ChIJbziWOmupQjQRBptFPTwzx4c,OD TEA 歐滴茶,25.0214,121.454,新北市板橋區中正路373號1樓,New Taipei City,新北市,https://foodpanda.com.tw/restaurant/ulcl/od-tea-ou-di-cha,https://www.google.com/maps/dir/?api=1&origin=%E6%9D%B1%E5%90%B3%E5%A4%A7%E5%AD%B8%E5%9F%8E%E4%B8%AD%E6%A0%A1%E5%8D%80&destination=OD+TEA+%E6%AD%90%E6%BB%B4%E8%8C%B6&travelmode=driving
ChIJTTSN_acCaDQR1K7bIRz_jw4,天仁茗茶(新北板橋店),25.0096,121.457,新北市板橋區府中路83號,New Taipei City,新北市,https://foodpanda.com.tw/restaurant/fp0o/tian-ren-ming-cha-xin-bei-ban-qiao-dian,https://www.google.com/maps/dir/?api=1&origin=%E6%9D%B1%E5%90%B3%E5%A4%A7%E5%AD%B8%E5%9F%8E%E4%B8%AD%E6%A0%A1%E5%8D%80&destination=%E5%A4%A9%E4%BB%81%E8%8C%97%E8%8C%B6%28%E6%96%B0%E5%8C%97%E6%9D%BF%E6%A9%8B%E5%BA%97%29&travelmode=driving
ChIJ--XfZKcCaDQR3hYcWB8n9qY,不一樣珍珠奶茶,25.008,121.461,新北市板橋區重慶路12巷1號,New Taipei City,新北市,https://foodpanda.com.tw/restaurant/a8zk/bu-yang-zhen-zhu-nai-cha,https://www.google.com/maps/dir/?api=1&origin=%E6%9D%B1%E5%90%B3%E5%A4%A7%E5%AD%B8%E5%9F%8E%E4%B8%AD%E6%A0%A1%E5%8D%80&destination=%E4%B8%8D%E4%B8%80%E6%A8%A3%E7%8F%8D%E7%8F%A0%E5%A5%B6%E8%8C%B6&travelmode=driving
ChIJkfxo-tMDaDQR85-d4bjA5a0,萬波島嶼紅茶(板橋府中店),25.0077,121.461,新北市板橋區重慶路34號1樓,New Taipei City,新北市,https://foodpanda.com.tw/restaurant/colm/wan-bo-dao-yu-hong-cha-ban-qiao-fu-zhong-dian,https://www.google.com/maps/dir/?api=1&origin=%E6%9D%B1%E5%90%B3%E5%A4%A7%E5%AD%B8%E5%9F%8E%E4%B8%AD%E6%A0%A1%E5%8D%80&destination=%E8%90%AC%E6%B3%A2%E5%B3%B6%E5%B6%BC%E7%B4%85%E8%8C%B6%28%E6%9D%BF%E6%A9%8B%E5%BA%9C%E4%B8%AD%E5%BA%97%29&travelmode=driving
ChIJczex12YDaDQR0ntpeHNX13k,發發 府中牧場,25.0075,121.461,新北市板橋區重慶路38號,New Taipei City,新北市,https://foodpanda.com.tw/restaurant/soni/fa-fa-fu-zhong-mu-chang,https://www.google.com/maps/dir/?api=1&origin=%E6%9D%B1%E5%90%B3%E5%A4%A7%E5%AD%B8%E5%9F%8E%E4%B8%AD%E6%A0%A1%E5%8D%80&destination=%E7%99%BC%E7%99%BC+%E5%BA%9C%E4%B8%AD%E7%89%A7%E5%A0%B4&travelmode=driving
ChIJvY7HtHapQjQRCxKfXvU5Sq4,七盞茶(板橋民生店),25.0254,121.467,新北市板橋區民生路3段62號,New Taipei City,新北市,https://foodpanda.com.tw/restaurant/a66x/qi-zhan-cha-ban-qiao-min-sheng-dian,https://www.google.com/maps/dir/?api=1&origin=%E6%9D%B1%E5%90%B3%E5%A4%A7%E5%AD%B8%E5%9F%8E%E4%B8%AD%E6%A0%A1%E5%8D%80&destination=%E4%B8%83%E7%9B%9E%E8%8C%B6%28%E6%9D%BF%E6%A9%8B%E6%B0%91%E7%94%9F%E5%BA%97%29&travelmode=driving
ChIJ02JvOmapQjQR3JkEXXUvJlg,晴喜摘(板橋民生店),25.0254,121.467,新北市板橋區民生路三段60號,New Taipei City,新北市,https://foodpanda.com.tw/restaurant/ou38/qing-xi-zhai-ban-qiao-min-sheng-dian,https://www.google.com/maps/dir/?api=1&origin=%E6%9D%B1%E5%90%B3%E5%A4%A7%E5%AD%B8%E5%9F%8E%E4%B8%AD%E6%A0%A1%E5%8D%80&destination=%E6%99%B4%E5%96%9C%E6%91%98%28%E6%9D%BF%E6%A9%8B%E6%B0%91%E7%94%9F%E5%BA%97%29&travelmode=driving
ChIJ5VcS0r8faDQR8SF4bW9Kq4w,萌想茶,25.0268,121.464,新北市板橋區四維路183號,New Taipei City,新北市,https://foodpanda.com.tw/restaurant/y18w/meng-xiang-cha-y18w,https://www.google.com/maps/dir/?api=1&origin=%E6%9D%B1%E5%90%B3%E5%A4%A7%E5%AD%B8%E5%9F%8E%E4%B8%AD%E6%A0%A1%E5%8D%80&destination=%E8%90%8C%E6%83%B3%E8%8C%B6&travelmode=driving
ChIJHY9vIjWpQjQRszUERF1pjGs,老賴茶棧(板橋莒光店),25.025,121.47,新北市板橋區莒光路7號,New Taipei City,新北市,https://foodpanda.com.tw/restaurant/og4f/lao-lai-cha-zhan-ban-qiao-ju-guang-dian,https://www.google.com/maps/dir/?api=1&origin=%E6%9D%B1%E5%90%B3%E5%A4%A7%E5%AD%B8%E5%9F%8E%E4%B8%AD%E6%A0%A1%E5%8D%80&destination=%E8%80%81%E8%B3%B4%E8%8C%B6%E6%A3%A7%28%E6%9D%BF%E6%A9%8B%E8%8E%92%E5%85%89%E5%BA%97%29&travelmode=driving
ChIJCT3CH6OpQjQRYwsVDO34hBE,解渴飲料店(G treeda),25.0262,121.458,板橋區新海路385巷22弄11號,New Taipei City,新北市,https://foodpanda.com.tw/restaurant/eamj/jie-ke-yin-liao-dian-g-treeda,https://www.google.com/maps/dir/?api=1&origin=%E6%9D%B1%E5%90%B3%E5%A4%A7%E5%AD%B8%E5%9F%8E%E4%B8%AD%E6%A0%A1%E5%8D%80&destination=%E8%A7%A3%E6%B8%B4%E9%A3%B2%E6%96%99%E5%BA%97%28G+treeda%29&travelmode=driving
ChIJbyzdpKcCaDQReJvRwd1DNYI,曼士茶(板橋府中店),25.0069,121.459,新北市板橋區四川路一段6號,New Taipei City,新北市,https://foodpanda.com.tw/restaurant/oeri/man-shi-cha-ban-qiao-fu-zhong-dian,https://www.google.com/maps/dir/?api=1&origin=%E6%9D%B1%E5%90%B3%E5%A4%A7%E5%AD%B8%E5%9F%8E%E4%B8%AD%E6%A0%A1%E5%8D%80&destination=%E6%9B%BC%E5%A3%AB%E8%8C%B6%28%E6%9D%BF%E6%A9%8B%E5%BA%9C%E4%B8%AD%E5%BA%97%29&travelmode=driving
ChIJ_xfXNgADaDQRtLJBqy1wbEI,先喝道(板橋湳雅店),25.0079,121.457,新北市板橋區館前西路132號,New Taipei City,新北市,https://foodpanda.com.tw/restaurant/u7m7/xian-he-dao-ban-qiao-nan-ya-dian,https://www.google.com/maps/dir/?api=1&origin=%E6%9D%B1%E5%90%B3%E5%A4%A7%E5%AD%B8%E5%9F%8E%E4%B8%AD%E6%A0%A1%E5%8D%80&destination=%E5%85%88%E5%96%9D%E9%81%93%28%E6%9D%BF%E6%A9%8B%E6%B9%B3%E9%9B%85%E5%BA%97%29&travelmode=driving
ChIJEaGtCeoDaDQRfedYk1AivGk,美丘拎茶,25.0072,121.458,新北市板橋區館前西路77號,New Taipei City,新北市,https://foodpanda.com.tw/restaurant/zan3/mei-qiu-ling-cha,https://www.google.com/maps/dir/?api=1&origin=%E6%9D%B1%E5%90%B3%E5%A4%A7%E5%AD%B8%E5%9F%8E%E4%B8%AD%E6%A0%A1%E5%8D%80&destination=%E7%BE%8E%E4%B8%98%E6%8B%8E%E8%8C%B6&travelmode=driving
ChIJDWApWJ6pQjQRdPHaS8Fzsjs,青芽摘(板橋裕民店),25.0277,121.46,新北市板橋區裕民街112號,New Taipei City,新北市,https://foodpanda.com.tw/restaurant/x13t/qing-ya-zhai-ban-qiao-yu-min-dian,https://www.google.com/maps/dir/?api=1&origin=%E6%9D%B1%E5%90%B3%E5%A4%A7%E5%AD%B8%E5%9F%8E%E4%B8%AD%E6%A0%A1%E5%8D%80&destination=%E9%9D%92%E8%8A%BD%E6%91%98%28%E6%9D%BF%E6%A9%8B%E8%A3%95%E6%B0%91%E5%BA%97%29&travelmode=driving
ChIJrVz4vBqpQjQRoKG3z1zpuzc,Miss bi bo手搖飲料,25.0072,121.469,新北市板橋區民族路213號,New Taipei City,新北市,https://foodpanda.com.tw/restaurant/kd91/miss-bi-boshou-yao-yin-liao,https://www.google.com/maps/dir/?api=1&origin=%E6%9D%B1%E5%90%B3%E5%A4%A7%E5%AD%B8%E5%9F%8E%E4%B8%AD%E6%A0%A1%E5%8D%80&destination=Miss+bi+bo%E6%89%8B%E6%90%96%E9%A3%B2%E6%96%99&travelmode=driving
ChIJYx76BwCpQjQRk11YayIiaNk,涼水庫紅茶冰(板橋中山店),25.0155,121.476,新北市板橋區中山路二段90巷31號,New Taipei City,新北市,https://foodpanda.com.tw/restaurant/tm3j/liang-shui-ku-hong-cha-bing-ban-qiao-zhong-shan-dian,https://www.google.com/maps/dir/?api=1&origin=%E6%9D%B1%E5%90%B3%E5%A4%A7%E5%AD%B8%E5%9F%8E%E4%B8%AD%E6%A0%A1%E5%8D%80&destination=%E6%B6%BC%E6%B0%B4%E5%BA%AB%E7%B4%85%E8%8C%B6%E5%86%B0%28%E6%9D%BF%E6%A9%8B%E4%B8%AD%E5%B1%B1%E5%BA%97%29&travelmode=driving
ChIJXYY0FTA2aDQRG_E7o2XyJ_0,茶湯會(板橋四維店),25.029,121.463,新北市板橋區四維路284號,New Taipei City,新北市,https://foodpanda.com.tw/restaurant/y4wg/cha-tang-hui-ban-qiao-si-wei-dian,https://www.google.com/maps/dir/?api=1&origin=%E6%9D%B1%E5%90%B3%E5%A4%A7%E5%AD%B8%E5%9F%8E%E4%B8%AD%E6%A0%A1%E5%8D%80&destination=%E8%8C%B6%E6%B9%AF%E6%9C%83%28%E6%9D%BF%E6%A9%8B%E5%9B%9B%E7%B6%AD%E5%BA%97%29&travelmode=driving
ChIJ88C8hEQDaDQRGbyi6CIWDxU,IN DAN Q 飲丹丘(湳雅店),25.0062,121.456,新北市板橋區南雅南路一段47號,New Taipei City,新北市,https://foodpanda.com.tw/restaurant/r2cy/in-dan-q-yin-dan-qiu-nan-ya-dian,https://www.google.com/maps/dir/?api=1&origin=%E6%9D%B1%E5%90%B3%E5%A4%A7%E5%AD%B8%E5%9F%8E%E4%B8%AD%E6%A0%A1%E5%8D%80&destination=IN+DAN+Q+%E9%A3%B2%E4%B8%B9%E4%B8%98%28%E6%B9%B3%E9%9B%85%E5%BA%97%29&travelmode=driving
ChIJewCA3C-pQjQRFikjlrsVBt8,微甜茶品(新北板橋裕民店),25.0292,121.462,新北市板橋區裕民街8號,New Taipei City,新北市,https://foodpanda.com.tw/restaurant/ezjr/wei-tian-cha-pin-xin-bei-ban-qiao-yu-min-dian,https://www.google.com/maps/dir/?api=1&origin=%E6%9D%B1%E5%90%B3%E5%A4%A7%E5%AD%B8%E5%9F%8E%E4%B8%AD%E6%A0%A1%E5%8D%80&destination=%E5%BE%AE%E7%94%9C%E8%8C%B6%E5%93%81%28%E6%96%B0%E5%8C%97%E6%9D%BF%E6%A9%8B%E8%A3%95%E6%B0%91%E5%BA%97%29&travelmode=driving
ChIJU3qREDuoQjQRjENCVxDNsfA,大苑子(板橋中山店),25.017,121.476,新北市板橋區中山路二段185號,New Taipei City,新北市,https://foodpanda.com.tw/restaurant/a9qz/da-yuan-zi-ban-qiao-zhong-shan-dian,https://www.google.com/maps/dir/?api=1&origin=%E6%9D%B1%E5%90%B3%E5%A4%A7%E5%AD%B8%E5%9F%8E%E4%B8%AD%E6%A0%A1%E5%8D%80&destination=%E5%A4%A7%E8%8B%91%E5%AD%90%28%E6%9D%BF%E6%A9%8B%E4%B8%AD%E5%B1%B1%E5%BA%97%29&travelmode=driving
ChIJi6jS0fepQjQR2iVDACTu5g4,一手私藏世界紅茶(板橋四維店),25.0293,121.463,新北市板橋區四維路294號1樓,New Taipei City,新北市,https://foodpanda.com.tw/restaurant/ap8b/shou-si-cang-shi-jie-hong-cha-ban-qiao-si-wei-dian,https://www.google.com/maps/dir/?api=1&origin=%E6%9D%B1%E5%90%B3%E5%A4%A7%E5%AD%B8%E5%9F%8E%E4%B8%AD%E6%A0%A1%E5%8D%80&destination=%E4%B8%80%E6%89%8B%E7%A7%81%E8%97%8F%E4%B8%96%E7%95%8C%E7%B4%85%E8%8C%B6%28%E6%9D%BF%E6%A9%8B%E5%9B%9B%E7%B6%AD%E5%BA%97%29&travelmode=driving
ChIJmy5qaeQDaDQR2a4MNZk-3FU,泰讚了(府中南雅店),25.0056,121.456,新北市板橋區南雅南路一段5巷7號,New Taipei City,新北市,https://foodpanda.com.tw/restaurant/pmf1/tai-zan-liao-fu-zhong-nan-ya-dian,https://www.google.com/maps/dir/?api=1&origin=%E6%9D%B1%E5%90%B3%E5%A4%A7%E5%AD%B8%E5%9F%8E%E4%B8%AD%E6%A0%A1%E5%8D%80&destination=%E6%B3%B0%E8%AE%9A%E4%BA%86%28%E5%BA%9C%E4%B8%AD%E5%8D%97%E9%9B%85%E5%BA%97%29&travelmode=driving
ChIJ8dlm5rEDaDQRvBFpMgtcwPY,龜記茗品(板橋南雅店),25.0058,121.456,新北市板橋區南雅南路一段71號,New Taipei City,新北市,https://foodpanda.com.tw/restaurant/wyu6/gui-ji-ming-pin-ban-qiao-nan-ya-dian,https://www.google.com/maps/dir/?api=1&origin=%E6%9D%B1%E5%90%B3%E5%A4%A7%E5%AD%B8%E5%9F%8E%E4%B8%AD%E6%A0%A1%E5%8D%80&destination=%E9%BE%9C%E8%A8%98%E8%8C%97%E5%93%81%28%E6%9D%BF%E6%A9%8B%E5%8D%97%E9%9B%85%E5%BA%97%29&travelmode=driving
ChIJLw-fkJoDaDQR2WdN0xOuFkc,洪君現打果汁,25.0058,121.455,新北市板橋區南雅東路7號,New Taipei City,新北市,https://foodpanda.com.tw/restaurant/fdk2/hong-jun-xian-da-guo-zhi,https://www.google.com/maps/dir/?api=1&origin=%E6%9D%B1%E5%90%B3%E5%A4%A7%E5%AD%B8%E5%9F%8E%E4%B8%AD%E6%A0%A1%E5%8D%80&destination=%E6%B4%AA%E5%90%9B%E7%8F%BE%E6%89%93%E6%9E%9C%E6%B1%81&travelmode=driving
ChIJG21LZQADaDQRmNAzt2ItAlU,果霸茶(板橋府中店),25.0054,121.456,新北市板橋區南雅南路一段5巷12號,New Taipei City,新北市,https://foodpanda.com.tw/restaurant/xz4l/guo-ba-cha-ban-qiao-fu-zhong-dian,https://www.google.com/maps/dir/?api=1&origin=%E6%9D%B1%E5%90%B3%E5%A4%A7%E5%AD%B8%E5%9F%8E%E4%B8%AD%E6%A0%A1%E5%8D%80&destination=%E6%9E%9C%E9%9C%B8%E8%8C%B6%28%E6%9D%BF%E6%A9%8B%E5%BA%9C%E4%B8%AD%E5%BA%97%29&travelmode=driving
ChIJ90Ks9DIDaDQR0yePnevLBlw,Tea's原味(板橋貴興店),25.0045,121.458,新北市板橋區貴興路2之1號,New Taipei City,新北市,https://foodpanda.com.tw/restaurant/if2r/teasyuan-wei-ban-qiao-gui-xing-dian,https://www.google.com/maps/dir/?api=1&origin=%E6%9D%B1%E5%90%B3%E5%A4%A7%E5%AD%B8%E5%9F%8E%E4%B8%AD%E6%A0%A1%E5%8D%80&destination=Tea%27s%E5%8E%9F%E5%91%B3%28%E6%9D%BF%E6%A9%8B%E8%B2%B4%E8%88%88%E5%BA%97%29&travelmode=driving
ChIJ666ThXapQjQRHJMxInT0C0Q,享豆可綠豆沙牛奶專賣店,25.007,121.472,新北市中和區漢生東路366號1樓,New Taipei City,新北市,https://foodpanda.com.tw/restaurant/a3v1/xiang-dou-ke-lu-dou-sha-niu-nai-zhuan-mai-dian,https://www.google.com/maps/dir/?api=1&origin=%E6%9D%B1%E5%90%B3%E5%A4%A7%E5%AD%B8%E5%9F%8E%E4%B8%AD%E6%A0%A1%E5%8D%80&destination=%E4%BA%AB%E8%B1%86%E5%8F%AF%E7%B6%A0%E8%B1%86%E6%B2%99%E7%89%9B%E5%A5%B6%E5%B0%88%E8%B3%A3%E5%BA%97&travelmode=driving
ChIJL03LnKYCaDQRr1sgE5LCIGo,8more白木耳專門店(板橋校前店),25.003,121.46,新北市板橋區校前街17號,New Taipei City,新北市,https://foodpanda.com.tw/restaurant/e2dw/8morebai-mu-er-zhuan-men-dian-ban-qiao-xiao-qian-dian,https://www.google.com/maps/dir/?api=1&origin=%E6%9D%B1%E5%90%B3%E5%A4%A7%E5%AD%B8%E5%9F%8E%E4%B8%AD%E6%A0%A1%E5%8D%80&destination=8more%E7%99%BD%E6%9C%A8%E8%80%B3%E5%B0%88%E9%96%80%E5%BA%97%28%E6%9D%BF%E6%A9%8B%E6%A0%A1%E5%89%8D%E5%BA%97%29&travelmode=driving
ChIJpS0olmGvQjQRcHubIoWHOog,功夫茶KUNG FU TEA(中和環球店),25.0064,121.473,新北市中和區中山路三段162號,New Taipei City,新北市,https://foodpanda.com.tw/restaurant/pft8/gong-fu-cha-kung-fu-tea-zhong-he-huan-qiu-dian,https://www.google.com/maps/dir/?api=1&origin=%E6%9D%B1%E5%90%B3%E5%A4%A7%E5%AD%B8%E5%9F%8E%E4%B8%AD%E6%A0%A1%E5%8D%80&destination=%E5%8A%9F%E5%A4%AB%E8%8C%B6KUNG+FU+TEA%28%E4%B8%AD%E5%92%8C%E7%92%B0%E7%90%83%E5%BA%97%29&travelmode=driving
ChIJWRy2awCpQjQR6XrZQbNIyCg,紅茶洋行(板橋江翠店),25.0288,121.471,新北市板橋區文化路二段247號,New Taipei City,新北市,https://foodpanda.com.tw/restaurant/s3nh/hong-cha-yang-xing-ban-qiao-jiang-cui-dian,https://www.google.com/maps/dir/?api=1&origin=%E6%9D%B1%E5%90%B3%E5%A4%A7%E5%AD%B8%E5%9F%8E%E4%B8%AD%E6%A0%A1%E5%8D%80&destination=%E7%B4%85%E8%8C%B6%E6%B4%8B%E8%A1%8C%28%E6%9D%BF%E6%A9%8B%E6%B1%9F%E7%BF%A0%E5%BA%97%29&travelmode=driving
ChIJt_E3ZKECaDQRgfQtUtp5X40,嘉義紅茶蔥抓餅專賣,25.0026,121.465,新北市板橋區忠孝路180號,New Taipei City,新北市,https://foodpanda.com.tw/restaurant/e3it/jia-yi-hong-cha-cong-zhua-bing-zhuan-mai,https://www.google.com/maps/dir/?api=1&origin=%E6%9D%B1%E5%90%B3%E5%A4%A7%E5%AD%B8%E5%9F%8E%E4%B8%AD%E6%A0%A1%E5%8D%80&destination=%E5%98%89%E7%BE%A9%E7%B4%85%E8%8C%B6%E8%94%A5%E6%8A%93%E9%A4%85%E5%B0%88%E8%B3%A3&travelmode=driving
ChIJg-LCZqECaDQRl4xiGOXwPiU,皇爵(新北板橋忠孝店),25.0025,121.464,新北市板橋區忠孝路172號,New Taipei City,新北市,https://foodpanda.com.tw/restaurant/z7ks/huang-jue-xin-bei-ban-qiao-zhong-xiao-dian,https://www.google.com/maps/dir/?api=1&origin=%E6%9D%B1%E5%90%B3%E5%A4%A7%E5%AD%B8%E5%9F%8E%E4%B8%AD%E6%A0%A1%E5%8D%80&destination=%E7%9A%87%E7%88%B5%28%E6%96%B0%E5%8C%97%E6%9D%BF%E6%A9%8B%E5%BF%A0%E5%AD%9D%E5%BA%97%29&travelmode=driving
ChIJHTXkBMCpQjQROTwWxSX0IEs,小果,25.0302,121.472,新北市板橋區雙十路三段1號,New Taipei City,新北市,https://foodpanda.com.tw/restaurant/b8aj/xiao-guo,https://www.google.com/maps/dir/?api=1&origin=%E6%9D%B1%E5%90%B3%E5%A4%A7%E5%AD%B8%E5%9F%8E%E4%B8%AD%E6%A0%A1%E5%8D%80&destination=%E5%B0%8F%E6%9E%9C&travelmode=driving
ChIJy0XazqMCaDQRrN5ykS0Anzk,茶米王專業茶飲,25.001,121.465,新北市板橋區重慶路245巷47號,New Taipei City,新北市,https://foodpanda.com.tw/restaurant/tra4/cha-mi-wang-zhuan-ye-cha-yin,https://www.google.com/maps/dir/?api=1&origin=%E6%9D%B1%E5%90%B3%E5%A4%A7%E5%AD%B8%E5%9F%8E%E4%B8%AD%E6%A0%A1%E5%8D%80&destination=%E8%8C%B6%E7%B1%B3%E7%8E%8B%E5%B0%88%E6%A5%AD%E8%8C%B6%E9%A3%B2&travelmode=driving
ChIJwRYFTqepQjQRqDWN_cwsPmU,thirtea三十茶(板橋江子翠店),25.0296,121.474,新北市板橋區松柏街11號,New Taipei City,新北市,https://foodpanda.com.tw/restaurant/sn5l/thirteasan-shi-cha-ban-qiao-jiang-zi-cui-dian,https://www.google.com/maps/dir/?api=1&origin=%E6%9D%B1%E5%90%B3%E5%A4%A7%E5%AD%B8%E5%9F%8E%E4%B8%AD%E6%A0%A1%E5%8D%80&destination=thirtea%E4%B8%89%E5%8D%81%E8%8C%B6%28%E6%9D%BF%E6%A9%8B%E6%B1%9F%E5%AD%90%E7%BF%A0%E5%BA%97%29&travelmode=driving
ChIJswLpJAmpQjQRdNi5041TJeA,圓丘冰菓室,25.0319,121.471,新北市板橋區江寧路三段39-1號,New Taipei City,新北市,https://foodpanda.com.tw/restaurant/eeuj/yuan-qiu-bing-guo-shi,https://www.google.com/maps/dir/?api=1&origin=%E6%9D%B1%E5%90%B3%E5%A4%A7%E5%AD%B8%E5%9F%8E%E4%B8%AD%E6%A0%A1%E5%8D%80&destination=%E5%9C%93%E4%B8%98%E5%86%B0%E8%8F%93%E5%AE%A4&travelmode=driving
ChIJx6WqxqgDaDQRv8zusYfUGOQ,小茶齋(中和民享店),25.0027,121.474,新北市中和區民享街51號,New Taipei City,新北市,https://foodpanda.com.tw/restaurant/z0wq/xiao-cha-zhai-zhong-he-min-xiang-dian,https://www.google.com/maps/dir/?api=1&origin=%E6%9D%B1%E5%90%B3%E5%A4%A7%E5%AD%B8%E5%9F%8E%E4%B8%AD%E6%A0%A1%E5%8D%80&destination=%E5%B0%8F%E8%8C%B6%E9%BD%8B%28%E4%B8%AD%E5%92%8C%E6%B0%91%E4%BA%AB%E5%BA%97%29&travelmode=driving
ChIJD7XpaqUCaDQRfZAMieUrbqc,圓石禪飲(板橋四川店),24.9997,121.458,新北市板橋區四川路一段367號,New Taipei City,新北市,https://foodpanda.com.tw/restaurant/d6vq/yuan-shi-chan-yin-ban-qiao-si-chuan-dian,https://www.google.com/maps/dir/?api=1&origin=%E6%9D%B1%E5%90%B3%E5%A4%A7%E5%AD%B8%E5%9F%8E%E4%B8%AD%E6%A0%A1%E5%8D%80&destination=%E5%9C%93%E7%9F%B3%E7%A6%AA%E9%A3%B2%28%E6%9D%BF%E6%A9%8B%E5%9B%9B%E5%B7%9D%E5%BA%97%29&travelmode=driving
ChIJkb-pQsIDaDQR1e2Au7kw-5A,白巷子(中和民享店),25.001,121.474,新北市中和區民享街86巷1號1樓,New Taipei City,新北市,https://foodpanda.com.tw/restaurant/k95x/bai-xiang-zi-zhong-he-min-xiang-dian,https://www.google.com/maps/dir/?api=1&origin=%E6%9D%B1%E5%90%B3%E5%A4%A7%E5%AD%B8%E5%9F%8E%E4%B8%AD%E6%A0%A1%E5%8D%80&destination=%E7%99%BD%E5%B7%B7%E5%AD%90%28%E4%B8%AD%E5%92%8C%E6%B0%91%E4%BA%AB%E5%BA%97%29&travelmode=driving
ChIJvYrG36YDaDQRGyLl_GMb4_w,好韻茶堂(中和華福店),24.9969,121.466,新北市中和區華福街10號,New Taipei City,新北市,https://foodpanda.com.tw/restaurant/x6yb/hao-yun-cha-tang-zhong-he-hua-fu-dian,https://www.google.com/maps/dir/?api=1&origin=%E6%9D%B1%E5%90%B3%E5%A4%A7%E5%AD%B8%E5%9F%8E%E4%B8%AD%E6%A0%A1%E5%8D%80&destination=%E5%A5%BD%E9%9F%BB%E8%8C%B6%E5%A0%82%28%E4%B8%AD%E5%92%8C%E8%8F%AF%E7%A6%8F%E5%BA%97%29&travelmode=driving
ChIJA6sLorECaDQRVmiJCXtvwFQ,樂法(誠品亞東店),24.9977,121.452,新北市板橋區南雅南路二段21號1樓,New Taipei City,新北市,https://foodpanda.com.tw/restaurant/m4hg/le-fa-cheng-pin-ya-dong-dian,https://www.google.com/maps/dir/?api=1&origin=%E6%9D%B1%E5%90%B3%E5%A4%A7%E5%AD%B8%E5%9F%8E%E4%B8%AD%E6%A0%A1%E5%8D%80&destination=%E6%A8%82%E6%B3%95%28%E8%AA%A0%E5%93%81%E4%BA%9E%E6%9D%B1%E5%BA%97%29&travelmode=driving
ChIJ_y_Uq1upQjQRg7g7m0sW1cE,花藏茶,25.005,121.483,新北市中和區中山路二段479號1樓,New Taipei City,新北市,https://foodpanda.com.tw/restaurant/o7wk/hua-cang-cha,https://www.google.com/maps/dir/?api=1&origin=%E6%9D%B1%E5%90%B3%E5%A4%A7%E5%AD%B8%E5%9F%8E%E4%B8%AD%E6%A0%A1%E5%8D%80&destination=%E8%8A%B1%E8%97%8F%E8%8C%B6&travelmode=driving
ChIJ45xspzoDaDQRe_dn_PwYWuo,蔗家店(板橋四川店),24.9954,121.454,新北市板橋區四川路二段43號,New Taipei City,新北市,https://foodpanda.com.tw/restaurant/wnya/zhe-jia-dian-ban-qiao-si-chuan-dian,https://www.google.com/maps/dir/?api=1&origin=%E6%9D%B1%E5%90%B3%E5%A4%A7%E5%AD%B8%E5%9F%8E%E4%B8%AD%E6%A0%A1%E5%8D%80&destination=%E8%94%97%E5%AE%B6%E5%BA%97%28%E6%9D%BF%E6%A9%8B%E5%9B%9B%E5%B7%9D%E5%BA%97%29&travelmode=driving
ChIJ68W2qDKpQjQRte69JOgsQuU,CHUCHU啾啾咖啡(中和左岸店),25.01,121.487,新北市中和區中原街104號,New Taipei City,新北市,https://foodpanda.com.tw/restaurant/zog2/chuchujiu-jiu-ka-pei-zhong-he-zuo-an-dian,https://www.google.com/maps/dir/?api=1&origin=%E6%9D%B1%E5%90%B3%E5%A4%A7%E5%AD%B8%E5%9F%8E%E4%B8%AD%E6%A0%A1%E5%8D%80&destination=CHUCHU%E5%95%BE%E5%95%BE%E5%92%96%E5%95%A1%28%E4%B8%AD%E5%92%8C%E5%B7%A6%E5%B2%B8%E5%BA%97%29&travelmode=driving
ChIJn05_6EodaDQR42MS5PCv-z8,佐奶252,25.0025,121.443,新北市板橋區龍興街73巷25號,New Taipei City,新北市,https://foodpanda.com.tw/restaurant/kmur/zuo-nai-252,https://www.google.com/maps/dir/?api=1&origin=%E6%9D%B1%E5%90%B3%E5%A4%A7%E5%AD%B8%E5%9F%8E%E4%B8%AD%E6%A0%A1%E5%8D%80&destination=%E4%BD%90%E5%A5%B6252&travelmode=driving
ChIJORf6ZKADaDQRD2sV9cbdBPs,春陽茶事(土城亞東店),24.9938,121.455,新北市土城區廣明街69號,New Taipei City,新北市,https://foodpanda.com.tw/restaurant/e0rf/chun-yang-cha-shi-tu-cheng-ya-dong-dian,https://www.google.com/maps/dir/?api=1&origin=%E6%9D%B1%E5%90%B3%E5%A4%A7%E5%AD%B8%E5%9F%8E%E4%B8%AD%E6%A0%A1%E5%8D%80&destination=%E6%98%A5%E9%99%BD%E8%8C%B6%E4%BA%8B%28%E5%9C%9F%E5%9F%8E%E4%BA%9E%E6%9D%B1%E5%BA%97%29&travelmode=driving
ChIJCVtd6kADaDQRa93BBcn_4MY,17 Drink Cafe'(板橋亞東店),24.995,121.45,新北市板橋區南雅南路二段144巷89號,New Taipei City,新北市,https://foodpanda.com.tw/restaurant/romi/17-drink-cafe-ban-qiao-ya-dong-dian,https://www.google.com/maps/dir/?api=1&origin=%E6%9D%B1%E5%90%B3%E5%A4%A7%E5%AD%B8%E5%9F%8E%E4%B8%AD%E6%A0%A1%E5%8D%80&destination=17+Drink+Cafe%27%28%E6%9D%BF%E6%A9%8B%E4%BA%9E%E6%9D%B1%E5%BA%97%29&travelmode=driving
ChIJ-XCuaAADaDQRQuj-yX1C3iM,永貞新村紅茶冰X雞蛋糕(中和新生店),24.9994,121.484,新北市中和區新生街194號,New Taipei City,新北市,https://foodpanda.com.tw/restaurant/bzfa/yong-zhen-xin-cun-hong-cha-bing-xji-dan-gao-zhong-he-xin-sheng-dian,https://www.google.com/maps/dir/?api=1&origin=%E6%9D%B1%E5%90%B3%E5%A4%A7%E5%AD%B8%E5%9F%8E%E4%B8%AD%E6%A0%A1%E5%8D%80&destination=%E6%B0%B8%E8%B2%9E%E6%96%B0%E6%9D%91%E7%B4%85%E8%8C%B6%E5%86%B0X%E9%9B%9E%E8%9B%8B%E7%B3%95%28%E4%B8%AD%E5%92%8C%E6%96%B0%E7%94%9F%E5%BA%97%29&travelmode=driving
ChIJOwfvDb4CaDQR4KYOBa95MQg,京茶山(土城延和店),24.99,121.467,新北市土城區延和路97號,New Taipei City,新北市,https://foodpanda.com.tw/restaurant/a2jw/jing-cha-shan-tu-cheng-yan-he-dian,https://www.google.com/maps/dir/?api=1&origin=%E6%9D%B1%E5%90%B3%E5%A4%A7%E5%AD%B8%E5%9F%8E%E4%B8%AD%E6%A0%A1%E5%8D%80&destination=%E4%BA%AC%E8%8C%B6%E5%B1%B1%28%E5%9C%9F%E5%9F%8E%E5%BB%B6%E5%92%8C%E5%BA%97%29&travelmode=driving
ChIJJxdzKgADaDQRH8qfQYBMIjE,吳家紅茶冰(中和建康店),25.0002,121.487,新北市中和區建康路79號,New Taipei City,新北市,https://foodpanda.com.tw/restaurant/dgx7/wu-jia-hong-cha-bing-zhong-he-jian-kang-dian,https://www.google.com/maps/dir/?api=1&origin=%E6%9D%B1%E5%90%B3%E5%A4%A7%E5%AD%B8%E5%9F%8E%E4%B8%AD%E6%A0%A1%E5%8D%80&destination=%E5%90%B3%E5%AE%B6%E7%B4%85%E8%8C%B6%E5%86%B0%28%E4%B8%AD%E5%92%8C%E5%BB%BA%E5%BA%B7%E5%BA%97%29&travelmode=driving
ChIJU_7V9xADaDQRxpvTESMEqHI,飲樂,24.9983,121.487,新北市中和區建八路12號之4,New Taipei City,新北市,https://foodpanda.com.tw/restaurant/pofl/yin-le,https://www.google.com/maps/dir/?api=1&origin=%E6%9D%B1%E5%90%B3%E5%A4%A7%E5%AD%B8%E5%9F%8E%E4%B8%AD%E6%A0%A1%E5%8D%80&destination=%E9%A3%B2%E6%A8%82&travelmode=driving
ChIJs_uUn6YDaDQRq5glw4Ga-Lw,力冰甜品,24.9881,121.468,新北市土城區金城路三段129號,New Taipei City,新北市,https://foodpanda.com.tw/restaurant/rmpu/li-bing-tian-pin,https://www.google.com/maps/dir/?api=1&origin=%E6%9D%B1%E5%90%B3%E5%A4%A7%E5%AD%B8%E5%9F%8E%E4%B8%AD%E6%A0%A1%E5%8D%80&destination=%E5%8A%9B%E5%86%B0%E7%94%9C%E5%93%81&travelmode=driving
ChIJZQg1vJoDaDQRv4jbTSOETyU,茶二坊(中和遠東世紀店),24.9976,121.487,新北市中和區建一路170-2號1樓,New Taipei City,新北市,https://foodpanda.com.tw/restaurant/j7at/cha-er-fang-zhong-he-yuan-dong-shi-ji-dian,https://www.google.com/maps/dir/?api=1&origin=%E6%9D%B1%E5%90%B3%E5%A4%A7%E5%AD%B8%E5%9F%8E%E4%B8%AD%E6%A0%A1%E5%8D%80&destination=%E8%8C%B6%E4%BA%8C%E5%9D%8A%28%E4%B8%AD%E5%92%8C%E9%81%A0%E6%9D%B1%E4%B8%96%E7%B4%80%E5%BA%97%29&travelmode=driving
ChIJDbR2Ps8DaDQR3b8t8T6WFVE,卿茶CHING TEA(學府店),24.9879,121.456,新北市土城區學府路一段104號,New Taipei City,新北市,https://foodpanda.com.tw/restaurant/f61r/qing-cha-ching-tea-xue-fu-dian,https://www.google.com/maps/dir/?api=1&origin=%E6%9D%B1%E5%90%B3%E5%A4%A7%E5%AD%B8%E5%9F%8E%E4%B8%AD%E6%A0%A1%E5%8D%80&destination=%E5%8D%BF%E8%8C%B6CHING+TEA%28%E5%AD%B8%E5%BA%9C%E5%BA%97%29&travelmode=driving
ChIJC1LyWjEDaDQRqWOo-eMag7c,瓦莎咖啡,24.9964,121.489,新北市中和區連城路333號,New Taipei City,新北市,https://foodpanda.com.tw/restaurant/tm2r/wa-sha-ka-pei,https://www.google.com/maps/dir/?api=1&origin=%E6%9D%B1%E5%90%B3%E5%A4%A7%E5%AD%B8%E5%9F%8E%E4%B8%AD%E6%A0%A1%E5%8D%80&destination=%E7%93%A6%E8%8E%8E%E5%92%96%E5%95%A1&travelmode=driving
ChIJM1rJCuUDaDQRVtDAl_LO46o,上宇林頂級茶飲(土城海山店),24.9874,121.45,新北市土城區裕民路79號,New Taipei City,新北市,https://foodpanda.com.tw/restaurant/jz1y/shang-yu-lin-ding-ji-cha-yin-tu-cheng-hai-shan-dian,https://www.google.com/maps/dir/?api=1&origin=%E6%9D%B1%E5%90%B3%E5%A4%A7%E5%AD%B8%E5%9F%8E%E4%B8%AD%E6%A0%A1%E5%8D%80&destination=%E4%B8%8A%E5%AE%87%E6%9E%97%E9%A0%82%E7%B4%9A%E8%8C%B6%E9%A3%B2%28%E5%9C%9F%E5%9F%8E%E6%B5%B7%E5%B1%B1%E5%BA%97%29&travelmode=driving
ChIJDRA_UbcDaDQR7wt_iKTnTsk,有飲(新北土城店),24.9867,121.451,新北市土城區裕民路105號,New Taipei City,新北市,https://foodpanda.com.tw/restaurant/n6x4/you-yin-xin-bei-tu-cheng-dian,https://www.google.com/maps/dir/?api=1&origin=%E6%9D%B1%E5%90%B3%E5%A4%A7%E5%AD%B8%E5%9F%8E%E4%B8%AD%E6%A0%A1%E5%8D%80&destination=%E6%9C%89%E9%A3%B2%28%E6%96%B0%E5%8C%97%E5%9C%9F%E5%9F%8E%E5%BA%97%29&travelmode=driving
ChIJ_TlopacDaDQRRoNS8Uz8MLY,大鶴茶(土城延吉店),24.9851,121.468,新北市土城區延吉街182號,New Taipei City,新北市,https://foodpanda.com.tw/restaurant/hzjl/da-he-cha-tu-cheng-yan-ji-dian,https://www.google.com/maps/dir/?api=1&origin=%E6%9D%B1%E5%90%B3%E5%A4%A7%E5%AD%B8%E5%9F%8E%E4%B8%AD%E6%A0%A1%E5%8D%80&destination=%E5%A4%A7%E9%B6%B4%E8%8C%B6%28%E5%9C%9F%E5%9F%8E%E5%BB%B6%E5%90%89%E5%BA%97%29&travelmode=driving
ChIJUWGOLncDaDQRDo1-WE_P480,茶英雄(原舞茶道裕民店),24.9863,121.452,新北市土城區裕民路137-2號,New Taipei City,新北市,https://foodpanda.com.tw/restaurant/r2rx/cha-ying-xiong-yuan-wu-cha-dao-yu-min-dian,https://www.google.com/maps/dir/?api=1&origin=%E6%9D%B1%E5%90%B3%E5%A4%A7%E5%AD%B8%E5%9F%8E%E4%B8%AD%E6%A0%A1%E5%8D%80&destination=%E8%8C%B6%E8%8B%B1%E9%9B%84%28%E5%8E%9F%E8%88%9E%E8%8C%B6%E9%81%93%E8%A3%95%E6%B0%91%E5%BA%97%29&travelmode=driving
ChIJcwCDZ-wdaDQRJ14ZvHfVs5U,南果言茶品果飲專門店,24.9852,121.445,新北市土城區中央路一段269之3號,New Taipei City,新北市,https://foodpanda.com.tw/restaurant/jsij/nan-guo-yan-cha-pin-guo-yin-zhuan-men-dian,https://www.google.com/maps/dir/?api=1&origin=%E6%9D%B1%E5%90%B3%E5%A4%A7%E5%AD%B8%E5%9F%8E%E4%B8%AD%E6%A0%A1%E5%8D%80&destination=%E5%8D%97%E6%9E%9C%E8%A8%80%E8%8C%B6%E5%93%81%E6%9E%9C%E9%A3%B2%E5%B0%88%E9%96%80%E5%BA%97&travelmode=driving
ChIJM6sk9sIdaDQRtj-1W_w7RHY,可夫萊café(土城日和門市),24.9837,121.444,新北市土城區日和街1號1樓,New Taipei City,新北市,https://foodpanda.com.tw/restaurant/d5v0/ke-fu-lai-cafe-tu-cheng-ri-he-men-shi,https://www.google.com/maps/dir/?api=1&origin=%E6%9D%B1%E5%90%B3%E5%A4%A7%E5%AD%B8%E5%9F%8E%E4%B8%AD%E6%A0%A1%E5%8D%80&destination=%E5%8F%AF%E5%A4%AB%E8%90%8Acaf%C3%A9%28%E5%9C%9F%E5%9F%8E%E6%97%A5%E5%92%8C%E9%96%80%E5%B8%82%29&travelmode=driving
ChIJ07-y-aseaDQR2-pRHFgasTQ,清心福全(鶯歌南雅店),24.9541,121.349,新北市鶯歌區南雅路41號,New Taipei City,新北市,https://foodpanda.com.tw/restaurant/f9fl/qing-xin-fu-quan-ying-ge-nan-ya-dian,https://www.google.com/maps/dir/?api=1&origin=%E6%9D%B1%E5%90%B3%E5%A4%A7%E5%AD%B8%E5%9F%8E%E4%B8%AD%E6%A0%A1%E5%8D%80&destination=%E6%B8%85%E5%BF%83%E7%A6%8F%E5%85%A8%28%E9%B6%AF%E6%AD%8C%E5%8D%97%E9%9B%85%E5%BA%97%29&travelmode=driving
ChIJGUv4CR0faDQR90ueNKw0-yw,迷客夏 Milksha(鶯歌國慶店),24.954,121.351,新北市鶯歌區國慶街116號,New Taipei City,新北市,https://foodpanda.com.tw/restaurant/nsi4/mi-ke-xia-milksha-ying-ge-guo-qing-dian,https://www.google.com/maps/dir/?api=1&origin=%E6%9D%B1%E5%90%B3%E5%A4%A7%E5%AD%B8%E5%9F%8E%E4%B8%AD%E6%A0%A1%E5%8D%80&destination=%E8%BF%B7%E5%AE%A2%E5%A4%8F+Milksha%28%E9%B6%AF%E6%AD%8C%E5%9C%8B%E6%85%B6%E5%BA%97%29&travelmode=driving
ChIJmf_XX0YZaDQRafbz6cjr38Y,玉峰茗茶好大杯,24.9393,121.335,新北市鶯歌區中正三路225號,New Taipei City,新北市,https://foodpanda.com.tw/restaurant/a1me/yu-feng-ming-cha-hao-da-bei,https://www.google.com/maps/dir/?api=1&origin=%E6%9D%B1%E5%90%B3%E5%A4%A7%E5%AD%B8%E5%9F%8E%E4%B8%AD%E6%A0%A1%E5%8D%80&destination=%E7%8E%89%E5%B3%B0%E8%8C%97%E8%8C%B6%E5%A5%BD%E5%A4%A7%E6%9D%AF&travelmode=driving
ChIJI_vdTwAZaDQRw5PFu99yUsk,九丹煮奶（鶯歌店）,24.9403,121.339,"新北市 鶯歌區 二甲路 26, Taiwan",New Taipei City,新北市,https://foodpanda.com.tw/restaurant/n03v/jiu-dan-zhu-nai-ying-ge-dian,https://www.google.com/maps/dir/?api=1&origin=%E6%9D%B1%E5%90%B3%E5%A4%A7%E5%AD%B8%E5%9F%8E%E4%B8%AD%E6%A0%A1%E5%8D%80&destination=%E4%B9%9D%E4%B8%B9%E7%85%AE%E5%A5%B6%EF%BC%88%E9%B6%AF%E6%AD%8C%E5%BA%97%EF%BC%89&travelmode=driving
ChIJ5Zma60UZaDQRkIH20tQg-JU,Tree double双樹茶飲,24.9445,121.341,新北市鶯歌區尖山路288號,New Taipei City,新北市,https://foodpanda.com.tw/restaurant/hgxf/tree-doubleshuang-shu-cha-yin,https://www.google.com/maps/dir/?api=1&origin=%E6%9D%B1%E5%90%B3%E5%A4%A7%E5%AD%B8%E5%9F%8E%E4%B8%AD%E6%A0%A1%E5%8D%80&destination=Tree+double%E5%8F%8C%E6%A8%B9%E8%8C%B6%E9%A3%B2&travelmode=driving
ChIJOdnTW9wfaDQRZ969U1QmN30,鬼茶森林(新北鶯歌店),24.9541,121.343,新北市鶯歌區國華街89號,New Taipei City,新北市,https://foodpanda.com.tw/restaurant/z4en/gui-cha-sen-lin-xin-bei-ying-ge-dian,https://www.google.com/maps/dir/?api=1&origin=%E6%9D%B1%E5%90%B3%E5%A4%A7%E5%AD%B8%E5%9F%8E%E4%B8%AD%E6%A0%A1%E5%8D%80&destination=%E9%AC%BC%E8%8C%B6%E6%A3%AE%E6%9E%97%28%E6%96%B0%E5%8C%97%E9%B6%AF%E6%AD%8C%E5%BA%97%29&travelmode=driving
ChIJg-zri6weaDQRLpH6nWNSFoM,STARBUCKS 星巴克(鶯歌門市),24.9523,121.347,新北市鶯歌區育英街67號,New Taipei City,新北市,https://foodpanda.com.tw/restaurant/b1do/starbucks-xing-ba-ke-ying-ge-men-shi,https://www.google.com/maps/dir/?api=1&origin=%E6%9D%B1%E5%90%B3%E5%A4%A7%E5%AD%B8%E5%9F%8E%E4%B8%AD%E6%A0%A1%E5%8D%80&destination=STARBUCKS+%E6%98%9F%E5%B7%B4%E5%85%8B%28%E9%B6%AF%E6%AD%8C%E9%96%80%E5%B8%82%29&travelmode=driving
ChIJKbHzdKweaDQR9x7THe-AqJM,茶聚(鶯歌建國店),24.9535,121.349,新北市鶯歌區建國路233號,New Taipei City,新北市,https://foodpanda.com.tw/restaurant/d7xj/cha-ju-ying-ge-jian-guo-dian,https://www.google.com/maps/dir/?api=1&origin=%E6%9D%B1%E5%90%B3%E5%A4%A7%E5%AD%B8%E5%9F%8E%E4%B8%AD%E6%A0%A1%E5%8D%80&destination=%E8%8C%B6%E8%81%9A%28%E9%B6%AF%E6%AD%8C%E5%BB%BA%E5%9C%8B%E5%BA%97%29&travelmode=driving
ChIJ8w3AWQAfaDQRXQ8_43CnjKc,先喝道(鶯歌建國店),24.9534,121.349,新北市鶯歌區建國路217號1樓,New Taipei City,新北市,https://foodpanda.com.tw/restaurant/zrrq/xian-he-dao-ying-ge-jian-guo-dian,https://www.google.com/maps/dir/?api=1&origin=%E6%9D%B1%E5%90%B3%E5%A4%A7%E5%AD%B8%E5%9F%8E%E4%B8%AD%E6%A0%A1%E5%8D%80&destination=%E5%85%88%E5%96%9D%E9%81%93%28%E9%B6%AF%E6%AD%8C%E5%BB%BA%E5%9C%8B%E5%BA%97%29&travelmode=driving
ChIJM_Ys86seaDQR3sT7b4xLt30,50嵐(鶯歌建國店),24.9536,121.349,新北市鶯歌區建國路219號,New Taipei City,新北市,https://foodpanda.com.tw/restaurant/f0ye/50lan-ying-ge-jian-guo-dian,https://www.google.com/maps/dir/?api=1&origin=%E6%9D%B1%E5%90%B3%E5%A4%A7%E5%AD%B8%E5%9F%8E%E4%B8%AD%E6%A0%A1%E5%8D%80&destination=50%E5%B5%90%28%E9%B6%AF%E6%AD%8C%E5%BB%BA%E5%9C%8B%E5%BA%97%29&travelmode=driving
ChIJZ-RLKfsfaDQRVoga_Bh5imw,五桐號 WooTEA(鶯歌建國店),24.9536,121.349,新北市鶯歌區建國路199號1樓,New Taipei City,新北市,https://foodpanda.com.tw/restaurant/hzpf/wu-tong-hao-wootea-ying-ge-jian-guo-dian,https://www.google.com/maps/dir/?api=1&origin=%E6%9D%B1%E5%90%B3%E5%A4%A7%E5%AD%B8%E5%9F%8E%E4%B8%AD%E6%A0%A1%E5%8D%80&destination=%E4%BA%94%E6%A1%90%E8%99%9F+WooTEA%28%E9%B6%AF%E6%AD%8C%E5%BB%BA%E5%9C%8B%E5%BA%97%29&travelmode=driving
ChIJPZI2GwAfaDQRuAVIa8PNCng,得正 OOLONG TEA PROJECT(鶯歌建國計劃),24.9536,121.349,新北市鶯歌區建國路202號,New Taipei City,新北市,https://foodpanda.com.tw/restaurant/relx/de-zheng-oolong-tea-project-ying-ge-jian-guo-ji-hua,https://www.google.com/maps/dir/?api=1&origin=%E6%9D%B1%E5%90%B3%E5%A4%A7%E5%AD%B8%E5%9F%8E%E4%B8%AD%E6%A0%A1%E5%8D%80&destination=%E5%BE%97%E6%AD%A3+OOLONG+TEA+PROJECT%28%E9%B6%AF%E6%AD%8C%E5%BB%BA%E5%9C%8B%E8%A8%88%E5%8A%83%29&travelmode=driving
ChIJ6-x0wIEfaDQR_rvLL3Kczns,可不可熟成紅茶(鶯歌建國店),24.9536,121.35,新北市鶯歌區建國路157號,New Taipei City,新北市,https://foodpanda.com.tw/restaurant/mpft/ke-bu-ke-shou-cheng-hong-cha-ying-ge-jian-guo-dian,https://www.google.com/maps/dir/?api=1&origin=%E6%9D%B1%E5%90%B3%E5%A4%A7%E5%AD%B8%E5%9F%8E%E4%B8%AD%E6%A0%A1%E5%8D%80&destination=%E5%8F%AF%E4%B8%8D%E5%8F%AF%E7%86%9F%E6%88%90%E7%B4%85%E8%8C%B6%28%E9%B6%AF%E6%AD%8C%E5%BB%BA%E5%9C%8B%E5%BA%97%29&travelmode=driving
ChIJP6-_1qseaDQRtZaUI_Ok1SU,85度C(鶯歌國慶店),24.9538,121.351,新北市鶯歌區建國路154號,New Taipei City,新北市,https://foodpanda.com.tw/restaurant/pd4t/85du-c-ying-ge-guo-qing-dian,https://www.google.com/maps/dir/?api=1&origin=%E6%9D%B1%E5%90%B3%E5%A4%A7%E5%AD%B8%E5%9F%8E%E4%B8%AD%E6%A0%A1%E5%8D%80&destination=85%E5%BA%A6C%28%E9%B6%AF%E6%AD%8C%E5%9C%8B%E6%85%B6%E5%BA%97%29&travelmode=driving
ChIJc4bsK6oeaDQRWzq2d5tDD5o,橘子工坊(新北鶯歌店),24.954,121.352,新北市鶯歌區建國路115之1號,New Taipei City,新北市,https://foodpanda.com.tw/restaurant/d3ku/ju-zi-gong-fang-xin-bei-ying-ge-dian,https://www.google.com/maps/dir/?api=1&origin=%E6%9D%B1%E5%90%B3%E5%A4%A7%E5%AD%B8%E5%9F%8E%E4%B8%AD%E6%A0%A1%E5%8D%80&destination=%E6%A9%98%E5%AD%90%E5%B7%A5%E5%9D%8A%28%E6%96%B0%E5%8C%97%E9%B6%AF%E6%AD%8C%E5%BA%97%29&travelmode=driving
ChIJiQkJonsfaDQRLu4IpthsFn0,李記紅茶冰(鶯歌中正店),24.9541,121.352,新北市鶯歌區中正一路55號1樓,New Taipei City,新北市,https://foodpanda.com.tw/restaurant/jy6i/li-ji-hong-cha-bing-ying-ge-zhong-zheng-dian,https://www.google.com/maps/dir/?api=1&origin=%E6%9D%B1%E5%90%B3%E5%A4%A7%E5%AD%B8%E5%9F%8E%E4%B8%AD%E6%A0%A1%E5%8D%80&destination=%E6%9D%8E%E8%A8%98%E7%B4%85%E8%8C%B6%E5%86%B0%28%E9%B6%AF%E6%AD%8C%E4%B8%AD%E6%AD%A3%E5%BA%97%29&travelmode=driving
ChIJQTcCGb4faDQR6uEKfu99JA4,吳家紅茶冰(鳳鳴店),24.9678,121.333,新北市鶯歌區永和街59號,New Taipei City,新北市,https://foodpanda.com.tw/restaurant/jib3/wu-jia-hong-cha-bing-feng-ming-dian,https://www.google.com/maps/dir/?api=1&origin=%E6%9D%B1%E5%90%B3%E5%A4%A7%E5%AD%B8%E5%9F%8E%E4%B8%AD%E6%A0%A1%E5%8D%80&destination=%E5%90%B3%E5%AE%B6%E7%B4%85%E8%8C%B6%E5%86%B0%28%E9%B3%B3%E9%B3%B4%E5%BA%97%29&travelmode=driving
ChIJTWaL95sfaDQRl5yTwCshDI0,Tea’s原味(鶯歌鳳鳴店),24.9683,121.333,新北市鶯歌區鳳七路20號,New Taipei City,新北市,https://foodpanda.com.tw/restaurant/cwgx/teasyuan-wei-ying-ge-feng-ming-dian,https://www.google.com/maps/dir/?api=1&origin=%E6%9D%B1%E5%90%B3%E5%A4%A7%E5%AD%B8%E5%9F%8E%E4%B8%AD%E6%A0%A1%E5%8D%80&destination=Tea%E2%80%99s%E5%8E%9F%E5%91%B3%28%E9%B6%AF%E6%AD%8C%E9%B3%B3%E9%B3%B4%E5%BA%97%29&travelmode=driving
ChIJDQjQwMcfaDQRjcDgz8qoLmI,新井茶(新北鶯桃店),24.9691,121.329,新北市鶯歌區鶯桃路648號,New Taipei City,新北市,https://foodpanda.com.tw/restaurant/epgs/xin-jing-cha-xin-bei-ying-tao-dian,https://www.google.com/maps/dir/?api=1&origin=%E6%9D%B1%E5%90%B3%E5%A4%A7%E5%AD%B8%E5%9F%8E%E4%B8%AD%E6%A0%A1%E5%8D%80&destination=%E6%96%B0%E4%BA%95%E8%8C%B6%28%E6%96%B0%E5%8C%97%E9%B6%AF%E6%A1%83%E5%BA%97%29&travelmode=driving
ChIJj1cPX-0faDQRV5sycCQ5Oa8,拾汣茶屋(八德桃鶯店),24.9702,121.328,桃園市八德區桃鶯路99號,Taoyuan City,新北市,https://foodpanda.com.tw/restaurant/cjak/shi-cha-wu-ba-de-tao-ying-dian,https://www.google.com/maps/dir/?api=1&origin=%E6%9D%B1%E5%90%B3%E5%A4%A7%E5%AD%B8%E5%9F%8E%E4%B8%AD%E6%A0%A1%E5%8D%80&destination=%E6%8B%BE%E6%B1%A3%E8%8C%B6%E5%B1%8B%28%E5%85%AB%E5%BE%B7%E6%A1%83%E9%B6%AF%E5%BA%97%29&travelmode=driving
ChIJA4Hhq9ofaDQRcLOz6dDg5SY,good omens 好芋造,24.9704,121.328,桃園市八德區桃鶯路83號,Taoyuan City,新北市,https://foodpanda.com.tw/restaurant/hk7p/good-omens-hao-yu-zao,https://www.google.com/maps/dir/?api=1&origin=%E6%9D%B1%E5%90%B3%E5%A4%A7%E5%AD%B8%E5%9F%8E%E4%B8%AD%E6%A0%A1%E5%8D%80&destination=good+omens+%E5%A5%BD%E8%8A%8B%E9%80%A0&travelmode=driving
ChIJq3txODMfaDQRPzepye5Annc,春陽茶事(桃園桃鶯店),24.971,121.327,桃園市八德區桃鶯路52號,Taoyuan City,新北市,https://foodpanda.com.tw/restaurant/z0of/chun-yang-cha-shi-tao-yuan-tao-ying-dian,https://www.google.com/maps/dir/?api=1&origin=%E6%9D%B1%E5%90%B3%E5%A4%A7%E5%AD%B8%E5%9F%8E%E4%B8%AD%E6%A0%A1%E5%8D%80&destination=%E6%98%A5%E9%99%BD%E8%8C%B6%E4%BA%8B%28%E6%A1%83%E5%9C%92%E6%A1%83%E9%B6%AF%E5%BA%97%29&travelmode=driving
ChIJDRfploMfaDQR9IoTMNpTdeU,烏弄(八德桃鶯店),24.9713,121.327,桃園市八德區桃鶯路35號,Taoyuan City,新北市,https://foodpanda.com.tw/restaurant/iyef/wu-nong-ba-de-tao-ying-dian,https://www.google.com/maps/dir/?api=1&origin=%E6%9D%B1%E5%90%B3%E5%A4%A7%E5%AD%B8%E5%9F%8E%E4%B8%AD%E6%A0%A1%E5%8D%80&destination=%E7%83%8F%E5%BC%84%28%E5%85%AB%E5%BE%B7%E6%A1%83%E9%B6%AF%E5%BA%97%29&travelmode=driving
ChIJ1_hzdtMfaDQRkRhK-5c1uNE,厚味茶理(八德桃鶯店),24.9715,121.327,桃園市八德區桃鶯路21號,Taoyuan City,新北市,https://foodpanda.com.tw/restaurant/t7rv/hou-wei-cha-li-ba-de-tao-ying-dian,https://www.google.com/maps/dir/?api=1&origin=%E6%9D%B1%E5%90%B3%E5%A4%A7%E5%AD%B8%E5%9F%8E%E4%B8%AD%E6%A0%A1%E5%8D%80&destination=%E5%8E%9A%E5%91%B3%E8%8C%B6%E7%90%86%28%E5%85%AB%E5%BE%B7%E6%A1%83%E9%B6%AF%E5%BA%97%29&travelmode=driving
ChIJ76ddOQAdaDQR5iOObzWzeFI,紅茶帝國(鶯歌中正店),24.957,121.357,新北市鶯歌區中正一路310號,New Taipei City,新北市,https://foodpanda.com.tw/restaurant/wz6j/hong-cha-di-guo-ying-ge-zhong-zheng-dian,https://www.google.com/maps/dir/?api=1&origin=%E6%9D%B1%E5%90%B3%E5%A4%A7%E5%AD%B8%E5%9F%8E%E4%B8%AD%E6%A0%A1%E5%8D%80&destination=%E7%B4%85%E8%8C%B6%E5%B8%9D%E5%9C%8B%28%E9%B6%AF%E6%AD%8C%E4%B8%AD%E6%AD%A3%E5%BA%97%29&travelmode=driving
ChIJlSGoxFAfaDQRy-WkTgaiZLA,上宇林(八德桃鶯店),24.9717,121.326,桃園市八德區桃鶯路10號,Taoyuan City,新北市,https://foodpanda.com.tw/restaurant/n798/shang-yu-lin-ba-de-tao-ying-dian,https://www.google.com/maps/dir/?api=1&origin=%E6%9D%B1%E5%90%B3%E5%A4%A7%E5%AD%B8%E5%9F%8E%E4%B8%AD%E6%A0%A1%E5%8D%80&destination=%E4%B8%8A%E5%AE%87%E6%9E%97%28%E5%85%AB%E5%BE%B7%E6%A1%83%E9%B6%AF%E5%BA%97%29&travelmode=driving
ChIJa90zcNofaDQRYeX0XvEVs2Y,拾汣茶屋(桃園民族店),24.9909,121.31,桃園市桃園區民族路80號,Taoyuan City,桃園市,https://foodpanda.com.tw/restaurant/xhzu/shi-cha-wu-tao-yuan-min-zu-dian,https://www.google.com/maps/dir/?api=1&origin=%E6%9D%B1%E5%90%B3%E5%A4%A7%E5%AD%B8%E5%9F%8E%E4%B8%AD%E6%A0%A1%E5%8D%80&destination=%E6%8B%BE%E6%B1%A3%E8%8C%B6%E5%B1%8B%28%E6%A1%83%E5%9C%92%E6%B0%91%E6%97%8F%E5%BA%97%29&travelmode=driving
ChIJzV7R4AgfaDQRaAkZYnElllw,Tea's原味(桃園永安店),25.0007,121.299,桃園市桃園區永安路375號,Taoyuan City,桃園市,https://foodpanda.com.tw/restaurant/a9cl/teasyuan-wei-tao-yuan-yong-an-dian,https://www.google.com/maps/dir/?api=1&origin=%E6%9D%B1%E5%90%B3%E5%A4%A7%E5%AD%B8%E5%9F%8E%E4%B8%AD%E6%A0%A1%E5%8D%80&destination=Tea%27s%E5%8E%9F%E5%91%B3%28%E6%A1%83%E5%9C%92%E6%B0%B8%E5%AE%89%E5%BA%97%29&travelmode=driving
ChIJUafNKP4eaDQRE76DZErdDjI,85度C(桃園北興店),24.9982,121.309,桃園市桃園區中正路346號,Taoyuan City,桃園市,https://foodpanda.com.tw/restaurant/z9nj/85du-c-tao-yuan-bei-xing-dian,https://www.google.com/maps/dir/?api=1&origin=%E6%9D%B1%E5%90%B3%E5%A4%A7%E5%AD%B8%E5%9F%8E%E4%B8%AD%E6%A0%A1%E5%8D%80&destination=85%E5%BA%A6C%28%E6%A1%83%E5%9C%92%E5%8C%97%E8%88%88%E5%BA%97%29&travelmode=driving
ChIJgyv7l_8eaDQRQSToV8jKHoo,清心福全(桃園莒光店),24.9955,121.305,桃園市桃園區莒光街7號,Taoyuan City,桃園市,https://foodpanda.com.tw/restaurant/a1hq/qing-xin-fu-quan-tao-yuan-ju-guang-dian,https://www.google.com/maps/dir/?api=1&origin=%E6%9D%B1%E5%90%B3%E5%A4%A7%E5%AD%B8%E5%9F%8E%E4%B8%AD%E6%A0%A1%E5%8D%80&destination=%E6%B8%85%E5%BF%83%E7%A6%8F%E5%85%A8%28%E6%A1%83%E5%9C%92%E8%8E%92%E5%85%89%E5%BA%97%29&travelmode=driving
ChIJ5c24ZaUfaDQRemyblAz04es,無飲(桃園民安店),24.9953,121.3,桃園市桃園區民安路121號,Taoyuan City,桃園市,https://foodpanda.com.tw/restaurant/rd8y/wu-yin-tao-yuan-min-an-dian,https://www.google.com/maps/dir/?api=1&origin=%E6%9D%B1%E5%90%B3%E5%A4%A7%E5%AD%B8%E5%9F%8E%E4%B8%AD%E6%A0%A1%E5%8D%80&destination=%E7%84%A1%E9%A3%B2%28%E6%A1%83%E5%9C%92%E6%B0%91%E5%AE%89%E5%BA%97%29&travelmode=driving
ChIJ26rQbg4faDQR1pi9IVOh4VE,YOGU私廚飲品(桃園市府店),24.9929,121.302,桃園市桃園區縣府路52號,Taoyuan City,桃園市,https://foodpanda.com.tw/restaurant/fsfh/yogusi-chu-yin-pin-tao-yuan-shi-fu-dian,https://www.google.com/maps/dir/?api=1&origin=%E6%9D%B1%E5%90%B3%E5%A4%A7%E5%AD%B8%E5%9F%8E%E4%B8%AD%E6%A0%A1%E5%8D%80&destination=YOGU%E7%A7%81%E5%BB%9A%E9%A3%B2%E5%93%81%28%E6%A1%83%E5%9C%92%E5%B8%82%E5%BA%9C%E5%BA%97%29&travelmode=driving
ChIJDU3ppHkfaDQRktc8jpnKXBM,CoCo都可(桃園縣府店),24.9931,121.3,桃園市桃園區縣府路296號,Taoyuan City,桃園市,https://foodpanda.com.tw/restaurant/ag2j/cocodu-ke-tao-yuan-xian-fu-dian,https://www.google.com/maps/dir/?api=1&origin=%E6%9D%B1%E5%90%B3%E5%A4%A7%E5%AD%B8%E5%9F%8E%E4%B8%AD%E6%A0%A1%E5%8D%80&destination=CoCo%E9%83%BD%E5%8F%AF%28%E6%A1%83%E5%9C%92%E7%B8%A3%E5%BA%9C%E5%BA%97%29&travelmode=driving
ChIJIcM4pMsfaDQRkutUJ8Supug,日春木瓜牛奶(桃園三民店),24.9943,121.306,桃園市桃園區三民路三段108號,Taoyuan City,桃園市,https://foodpanda.com.tw/restaurant/fxs4/ri-chun-mu-gua-niu-nai-tao-yuan-san-min-dian-fxs4,https://www.google.com/maps/dir/?api=1&origin=%E6%9D%B1%E5%90%B3%E5%A4%A7%E5%AD%B8%E5%9F%8E%E4%B8%AD%E6%A0%A1%E5%8D%80&destination=%E6%97%A5%E6%98%A5%E6%9C%A8%E7%93%9C%E7%89%9B%E5%A5%B6%28%E6%A1%83%E5%9C%92%E4%B8%89%E6%B0%91%E5%BA%97%29&travelmode=driving
ChIJI5Gjkn4faDQR1fmczFJuxHo,軍茶(桃園永安店),24.9979,121.305,桃園市桃園區永安路228號,Taoyuan City,桃園市,https://foodpanda.com.tw/restaurant/q9td/jun-cha-tao-yuan-yong-an-dian,https://www.google.com/maps/dir/?api=1&origin=%E6%9D%B1%E5%90%B3%E5%A4%A7%E5%AD%B8%E5%9F%8E%E4%B8%AD%E6%A0%A1%E5%8D%80&destination=%E8%BB%8D%E8%8C%B6%28%E6%A1%83%E5%9C%92%E6%B0%B8%E5%AE%89%E5%BA%97%29&travelmode=driving
ChIJqfVDCUsfaDQRNP05RGgFtkU,白巷子(南華店),24.9916,121.308,桃園市桃園區南華街104號,Taoyuan City,桃園市,https://foodpanda.com.tw/restaurant/ouyb/bai-xiang-zi-nan-hua-dian,https://www.google.com/maps/dir/?api=1&origin=%E6%9D%B1%E5%90%B3%E5%A4%A7%E5%AD%B8%E5%9F%8E%E4%B8%AD%E6%A0%A1%E5%8D%80&destination=%E7%99%BD%E5%B7%B7%E5%AD%90%28%E5%8D%97%E8%8F%AF%E5%BA%97%29&travelmode=driving
ChIJQatFO7UfaDQRa96Jmy4YjFk,花路(桃園中山店),24.9936,121.309,桃園市桃園區中山路142號,Taoyuan City,桃園市,https://foodpanda.com.tw/restaurant/a3mz/hua-lu-tao-yuan-zhong-shan-dian,https://www.google.com/maps/dir/?api=1&origin=%E6%9D%B1%E5%90%B3%E5%A4%A7%E5%AD%B8%E5%9F%8E%E4%B8%AD%E6%A0%A1%E5%8D%80&destination=%E8%8A%B1%E8%B7%AF%28%E6%A1%83%E5%9C%92%E4%B8%AD%E5%B1%B1%E5%BA%97%29&travelmode=driving
ChIJE9DJEHQfaDQRhK3MA-o2iPw,喝爆茶飲he bao/精品手作茶飲,24.9986,121.309,桃園市桃園區中正路343號,Taoyuan City,桃園市,https://foodpanda.com.tw/restaurant/q85o/he-bao-cha-yin-he-bao-jing-pin-shou-zuo-cha-yin,https://www.google.com/maps/dir/?api=1&origin=%E6%9D%B1%E5%90%B3%E5%A4%A7%E5%AD%B8%E5%9F%8E%E4%B8%AD%E6%A0%A1%E5%8D%80&destination=%E5%96%9D%E7%88%86%E8%8C%B6%E9%A3%B2he+bao%2F%E7%B2%BE%E5%93%81%E6%89%8B%E4%BD%9C%E8%8C%B6%E9%A3%B2&travelmode=driving
ChIJZebGm48faDQRBcAy5N9Q8_8,可不可熟成紅茶(桃園中平店),24.9906,121.292,桃園市桃園區中平路6號,Taoyuan City,桃園市,https://foodpanda.com.tw/restaurant/coe4/ke-bu-ke-shou-cheng-hong-cha-tao-yuan-zhong-ping-dian,https://www.google.com/maps/dir/?api=1&origin=%E6%9D%B1%E5%90%B3%E5%A4%A7%E5%AD%B8%E5%9F%8E%E4%B8%AD%E6%A0%A1%E5%8D%80&destination=%E5%8F%AF%E4%B8%8D%E5%8F%AF%E7%86%9F%E6%88%90%E7%B4%85%E8%8C%B6%28%E6%A1%83%E5%9C%92%E4%B8%AD%E5%B9%B3%E5%BA%97%29&travelmode=driving
ChIJXYY0FTA2aDQRjr77En0qKyo,茶湯會(桃園中正店),25.0034,121.306,桃園市桃園區中正路556號,Taoyuan City,桃園市,https://foodpanda.com.tw/restaurant/ebkw/cha-tang-hui-tao-yuan-zhong-zheng-dian,https://www.google.com/maps/dir/?api=1&origin=%E6%9D%B1%E5%90%B3%E5%A4%A7%E5%AD%B8%E5%9F%8E%E4%B8%AD%E6%A0%A1%E5%8D%80&destination=%E8%8C%B6%E6%B9%AF%E6%9C%83%28%E6%A1%83%E5%9C%92%E4%B8%AD%E6%AD%A3%E5%BA%97%29&travelmode=driving
ChIJXe3dOh4faDQR82EslvfZ_f0,茶玉花(桃園店),24.9838,121.308,桃園市桃園區三民路三段575號,Taoyuan City,桃園市,https://foodpanda.com.tw/restaurant/a3il/cha-yu-hua-tao-yuan-dian,https://www.google.com/maps/dir/?api=1&origin=%E6%9D%B1%E5%90%B3%E5%A4%A7%E5%AD%B8%E5%9F%8E%E4%B8%AD%E6%A0%A1%E5%8D%80&destination=%E8%8C%B6%E7%8E%89%E8%8A%B1%28%E6%A1%83%E5%9C%92%E5%BA%97%29&travelmode=driving
ChIJ0SDOAmkfaDQRr2mJRdPumyE,菿喫甘呷(桃園民生店),24.9927,121.314,桃園市桃園區民生路152號,Taoyuan City,桃園市,https://foodpanda.com.tw/restaurant/v8ta/dao-chi-gan-xia-tao-yuan-min-sheng-dian,https://www.google.com/maps/dir/?api=1&origin=%E6%9D%B1%E5%90%B3%E5%A4%A7%E5%AD%B8%E5%9F%8E%E4%B8%AD%E6%A0%A1%E5%8D%80&destination=%E8%8F%BF%E5%96%AB%E7%94%98%E5%91%B7%28%E6%A1%83%E5%9C%92%E6%B0%91%E7%94%9F%E5%BA%97%29&travelmode=driving
ChIJY-_1CaIfaDQR_bZJY-n58gg,泰愛了手工泰式奶茶(桃園北埔店),25.0036,121.308,桃園市桃園區北埔路41號,Taoyuan City,桃園市,https://foodpanda.com.tw/restaurant/ig1c/tai-ai-liao-shou-gong-tai-shi-nai-cha-tao-yuan-bei-bu-dian,https://www.google.com/maps/dir/?api=1&origin=%E6%9D%B1%E5%90%B3%E5%A4%A7%E5%AD%B8%E5%9F%8E%E4%B8%AD%E6%A0%A1%E5%8D%80&destination=%E6%B3%B0%E6%84%9B%E4%BA%86%E6%89%8B%E5%B7%A5%E6%B3%B0%E5%BC%8F%E5%A5%B6%E8%8C%B6%28%E6%A1%83%E5%9C%92%E5%8C%97%E5%9F%94%E5%BA%97%29&travelmode=driving
ChIJncPSPHQfaDQR4Leg2krFxHw,珍煮丹(桃園桃鶯店),24.981,121.32,桃園市桃園區桃鶯路355號,Taoyuan City,桃園市,https://foodpanda.com.tw/restaurant/srdy/zhen-zhu-dan-tao-yuan-tao-ying-dian,https://www.google.com/maps/dir/?api=1&origin=%E6%9D%B1%E5%90%B3%E5%A4%A7%E5%AD%B8%E5%9F%8E%E4%B8%AD%E6%A0%A1%E5%8D%80&destination=%E7%8F%8D%E7%85%AE%E4%B8%B9%28%E6%A1%83%E5%9C%92%E6%A1%83%E9%B6%AF%E5%BA%97%29&travelmode=driving
ChIJ52FHmcgfaDQRTi2rBgkUq0I,COMEBUY(桃園寶山店),25.0126,121.317,桃園市桃園區寶山里寶山街163號,Taoyuan City,桃園市,https://foodpanda.com.tw/restaurant/mxrr/comebuy-tao-yuan-bao-shan-dian,https://www.google.com/maps/dir/?api=1&origin=%E6%9D%B1%E5%90%B3%E5%A4%A7%E5%AD%B8%E5%9F%8E%E4%B8%AD%E6%A0%A1%E5%8D%80&destination=COMEBUY%28%E6%A1%83%E5%9C%92%E5%AF%B6%E5%B1%B1%E5%BA%97%29&travelmode=driving
ChIJBzh4vbEfaDQR9UOdw8IKLj0,TEATOP 第一味(桃園南平店),25.0176,121.297,桃園市桃園區南平路400號,Taoyuan City,桃園市,https://foodpanda.com.tw/restaurant/t4s6/teatop-di-wei-tao-yuan-nan-ping-dian,https://www.google.com/maps/dir/?api=1&origin=%E6%9D%B1%E5%90%B3%E5%A4%A7%E5%AD%B8%E5%9F%8E%E4%B8%AD%E6%A0%A1%E5%8D%80&destination=TEATOP+%E7%AC%AC%E4%B8%80%E5%91%B3%28%E6%A1%83%E5%9C%92%E5%8D%97%E5%B9%B3%E5%BA%97%29&travelmode=driving
ChIJb_8V0-8faDQRL0_SRDwjvHg,龜記茗品(桃園藝文店),25.0183,121.299,桃園市桃園區南平路306號,Taoyuan City,桃園市,https://foodpanda.com.tw/restaurant/lkcq/gui-ji-ming-pin-tao-yuan-yi-wen-dian,https://www.google.com/maps/dir/?api=1&origin=%E6%9D%B1%E5%90%B3%E5%A4%A7%E5%AD%B8%E5%9F%8E%E4%B8%AD%E6%A0%A1%E5%8D%80&destination=%E9%BE%9C%E8%A8%98%E8%8C%97%E5%93%81%28%E6%A1%83%E5%9C%92%E8%97%9D%E6%96%87%E5%BA%97%29&travelmode=driving
ChIJBTdqwRcfaDQRs2gmfuyiwmk,吳家紅茶冰(龜山中興店),24.9928,121.336,桃園市龜山區中興路399號,Taoyuan City,桃園市,https://foodpanda.com.tw/restaurant/rnve/wu-jia-hong-cha-bing-gui-shan-zhong-xing-dian,https://www.google.com/maps/dir/?api=1&origin=%E6%9D%B1%E5%90%B3%E5%A4%A7%E5%AD%B8%E5%9F%8E%E4%B8%AD%E6%A0%A1%E5%8D%80&destination=%E5%90%B3%E5%AE%B6%E7%B4%85%E8%8C%B6%E5%86%B0%28%E9%BE%9C%E5%B1%B1%E4%B8%AD%E8%88%88%E5%BA%97%29&travelmode=driving
ChIJcXR_dgAfaDQRQfasLrvV97I,鼎淳手作茶,24.9946,121.3,桃園市桃園區縣府路220號,Taoyuan City,桃園市,https://foodpanda.com.tw/restaurant/jz7r/ding-chun-shou-zuo-cha,https://www.google.com/maps/dir/?api=1&origin=%E6%9D%B1%E5%90%B3%E5%A4%A7%E5%AD%B8%E5%9F%8E%E4%B8%AD%E6%A0%A1%E5%8D%80&destination=%E9%BC%8E%E6%B7%B3%E6%89%8B%E4%BD%9C%E8%8C%B6&travelmode=driving
ChIJ07HthQQfaDQRJ4ZjWQqHvOY,STARBUCKS 星巴克(桃園縣府門市),24.9944,121.302,桃園市桃園區縣府路116號1樓,Taoyuan City,桃園市,https://foodpanda.com.tw/restaurant/k6tc/starbucks-xing-ba-ke-tao-yuan-xian-fu-men-shi,https://www.google.com/maps/dir/?api=1&origin=%E6%9D%B1%E5%90%B3%E5%A4%A7%E5%AD%B8%E5%9F%8E%E4%B8%AD%E6%A0%A1%E5%8D%80&destination=STARBUCKS+%E6%98%9F%E5%B7%B4%E5%85%8B%28%E6%A1%83%E5%9C%92%E7%B8%A3%E5%BA%9C%E9%96%80%E5%B8%82%29&travelmode=driving
ChIJPUs4Ek8faDQRWFchFvRfung,十丈波紅茶(桃園復興店),24.9913,121.302,桃園市桃園區復興路411號1樓,Taoyuan City,桃園市,https://foodpanda.com.tw/restaurant/npk0/shi-zhang-bo-hong-cha-tao-yuan-fu-xing-dian,https://www.google.com/maps/dir/?api=1&origin=%E6%9D%B1%E5%90%B3%E5%A4%A7%E5%AD%B8%E5%9F%8E%E4%B8%AD%E6%A0%A1%E5%8D%80&destination=%E5%8D%81%E4%B8%88%E6%B3%A2%E7%B4%85%E8%8C%B6%28%E6%A1%83%E5%9C%92%E5%BE%A9%E8%88%88%E5%BA%97%29&travelmode=driving
ChIJ3T3ejgMfaDQRyKL1To9NeIE,甘萃鮮飲茶(桃園中山店),24.9955,121.303,桃園市桃園區中山北路142號,Taoyuan City,桃園市,https://foodpanda.com.tw/restaurant/a4ma/gan-cui-xian-yin-cha-tao-yuan-zhong-shan-dian,https://www.google.com/maps/dir/?api=1&origin=%E6%9D%B1%E5%90%B3%E5%A4%A7%E5%AD%B8%E5%9F%8E%E4%B8%AD%E6%A0%A1%E5%8D%80&destination=%E7%94%98%E8%90%83%E9%AE%AE%E9%A3%B2%E8%8C%B6%28%E6%A1%83%E5%9C%92%E4%B8%AD%E5%B1%B1%E5%BA%97%29&travelmode=driving
ChIJQ3EnCIAfaDQRRnBngs5uwNg,鮮茶道(桃園廈門店),24.9946,121.296,桃園市桃園區廈門街130號,Taoyuan City,桃園市,https://foodpanda.com.tw/restaurant/rx3x/xian-cha-dao-tao-yuan-sha-men-dian,https://www.google.com/maps/dir/?api=1&origin=%E6%9D%B1%E5%90%B3%E5%A4%A7%E5%AD%B8%E5%9F%8E%E4%B8%AD%E6%A0%A1%E5%8D%80&destination=%E9%AE%AE%E8%8C%B6%E9%81%93%28%E6%A1%83%E5%9C%92%E5%BB%88%E9%96%80%E5%BA%97%29&travelmode=driving
ChIJNe997EipQjQRi1Lq0AO01jE,芭樂BAR,24.9882,121.304,桃園市桃園區大同西路16號,Taoyuan City,桃園市,https://foodpanda.com.tw/restaurant/jik7/ba-le-bar,https://www.google.com/maps/dir/?api=1&origin=%E6%9D%B1%E5%90%B3%E5%A4%A7%E5%AD%B8%E5%9F%8E%E4%B8%AD%E6%A0%A1%E5%8D%80&destination=%E8%8A%AD%E6%A8%82BAR&travelmode=driving
ChIJRf2XeE49aTQRqZClyZBwL5s,茶水棧,24.9912,121.308,桃園市桃園區南華街86號1樓,Taoyuan City,桃園市,https://foodpanda.com.tw/restaurant/rsse/cha-shui-zhan,https://www.google.com/maps/dir/?api=1&origin=%E6%9D%B1%E5%90%B3%E5%A4%A7%E5%AD%B8%E5%9F%8E%E4%B8%AD%E6%A0%A1%E5%8D%80&destination=%E8%8C%B6%E6%B0%B4%E6%A3%A7&travelmode=driving
ChIJU5uEH5cfaDQRfC1ML8iMcFg,春和茶水攤(桃園壽昌店),24.99,121.294,桃園市桃園區壽昌街13-8號,Taoyuan City,桃園市,https://foodpanda.com.tw/restaurant/h9vt/chun-he-cha-shui-tan-tao-yuan-shou-chang-dian,https://www.google.com/maps/dir/?api=1&origin=%E6%9D%B1%E5%90%B3%E5%A4%A7%E5%AD%B8%E5%9F%8E%E4%B8%AD%E6%A0%A1%E5%8D%80&destination=%E6%98%A5%E5%92%8C%E8%8C%B6%E6%B0%B4%E6%94%A4%28%E6%A1%83%E5%9C%92%E5%A3%BD%E6%98%8C%E5%BA%97%29&travelmode=driving
